[
  {
    "city": "Madrid",
    "lat": "40.4167",
    "lng": "-3.7167",
    "country": "Spain",
    "iso2": "ES",
    "adminName": "Madrid",
    "capital": "primary",
    "population": "6026000",
    "populationProper": "3266126"
  },
  {
    "city": "Barcelona",
    "lat": "41.3825",
    "lng": "2.1769",
    "country": "Spain",
    "iso2": "ES",
    "adminName": "Catalonia",
    "capital": "admin",
    "population": "4588000",
    "populationProper": "1620343"
  },
  {
    "city": "Sevilla",
    "lat": "37.3900",
    "lng": "-5.9900",
    "country": "Spain",
    "iso2": "ES",
    "adminName": "Andalusia",
    "capital": "admin",
    "population": "1107000",
    "populationProper": "1107000"
  },
  {
    "city": "Málaga",
    "lat": "36.7194",
    "lng": "-4.4200",
    "country": "Spain",
    "iso2": "ES",
    "adminName": "Andalusia",
    "capital": "minor",
    "population": "967250",
    "populationProper": "578460"
  },
  {
    "city": "Valencia",
    "lat": "39.4700",
    "lng": "-0.3764",
    "country": "Spain",
    "iso2": "ES",
    "adminName": "Valencia",
    "capital": "admin",
    "population": "800215",
    "populationProper": "800215"
  },
  {
    "city": "Zaragoza",
    "lat": "41.6483",
    "lng": "-0.8830",
    "country": "Spain",
    "iso2": "ES",
    "adminName": "Aragon",
    "capital": "admin",
    "population": "649404",
    "populationProper": "448507"
  },
  {
    "city": "Palma",
    "lat": "39.5667",
    "lng": "2.6500",
    "country": "Spain",
    "iso2": "ES",
    "adminName": "Balearic Islands",
    "capital": "admin",
    "population": "550000",
    "populationProper": "422587"
  },
  {
    "city": "Murcia",
    "lat": "37.9861",
    "lng": "-1.1303",
    "country": "Spain",
    "iso2": "ES",
    "adminName": "Murcia",
    "capital": "admin",
    "population": "502000",
    "populationProper": "459403"
  },
  {
    "city": "Las Palmas",
    "lat": "28.1272",
    "lng": "-15.4314",
    "country": "Spain",
    "iso2": "ES",
    "adminName": "Canary Islands",
    "capital": "admin",
    "population": "381223",
    "populationProper": "381223"
  },
  {
    "city": "A Coruña",
    "lat": "43.3713",
    "lng": "-8.4188",
    "country": "Spain",
    "iso2": "ES",
    "adminName": "Galicia",
    "capital": "minor",
    "population": "370610",
    "populationProper": "242619"
  },
  {
    "city": "Bilbao",
    "lat": "43.2569",
    "lng": "-2.9236",
    "country": "Spain",
    "iso2": "ES",
    "adminName": "Basque Country",
    "capital": "minor",
    "population": "350184",
    "populationProper": "350184"
  },
  {
    "city": "Alicante",
    "lat": "38.3453",
    "lng": "-0.4831",
    "country": "Spain",
    "iso2": "ES",
    "adminName": "Valencia",
    "capital": "minor",
    "population": "337482",
    "populationProper": "337482"
  },
  {
    "city": "Córdoba",
    "lat": "37.8845",
    "lng": "-4.7796",
    "country": "Spain",
    "iso2": "ES",
    "adminName": "Andalusia",
    "capital": "minor",
    "population": "321376",
    "populationProper": "279648"
  },
  {
    "city": "Valladolid",
    "lat": "41.6528",
    "lng": "-4.7236",
    "country": "Spain",
    "iso2": "ES",
    "adminName": "Castille-Leon",
    "capital": "admin",
    "population": "299265",
    "populationProper": "299265"
  },
  {
    "city": "Vigo",
    "lat": "42.2314",
    "lng": "-8.7124",
    "country": "Spain",
    "iso2": "ES",
    "adminName": "Galicia",
    "capital": "",
    "population": "296692",
    "populationProper": "296692"
  },
  {
    "city": "Gijón",
    "lat": "43.5333",
    "lng": "-5.7000",
    "country": "Spain",
    "iso2": "ES",
    "adminName": "Asturias",
    "capital": "",
    "population": "271780",
    "populationProper": "271717"
  },
  {
    "city": "Vitoria-Gasteiz",
    "lat": "42.8500",
    "lng": "-2.6833",
    "country": "Spain",
    "iso2": "ES",
    "adminName": "Basque Country",
    "capital": "admin",
    "population": "253996",
    "populationProper": "253996"
  },
  {
    "city": "Elche",
    "lat": "38.2669",
    "lng": "-0.6983",
    "country": "Spain",
    "iso2": "ES",
    "adminName": "Valencia",
    "capital": "",
    "population": "234765",
    "populationProper": "234765"
  },
  {
    "city": "Granada",
    "lat": "37.1781",
    "lng": "-3.6008",
    "country": "Spain",
    "iso2": "ES",
    "adminName": "Andalusia",
    "capital": "minor",
    "population": "233648",
    "populationProper": "233648"
  },
  {
    "city": "Tarrasa",
    "lat": "41.5611",
    "lng": "2.0081",
    "country": "Spain",
    "iso2": "ES",
    "adminName": "Catalonia",
    "capital": "",
    "population": "223627",
    "populationProper": "223627"
  },
  {
    "city": "Badalona",
    "lat": "41.4333",
    "lng": "2.2333",
    "country": "Spain",
    "iso2": "ES",
    "adminName": "Catalonia",
    "capital": "",
    "population": "223166",
    "populationProper": "223166"
  },
  {
    "city": "Oviedo",
    "lat": "43.3600",
    "lng": "-5.8450",
    "country": "Spain",
    "iso2": "ES",
    "adminName": "Asturias",
    "capital": "admin",
    "population": "219910",
    "populationProper": "219910"
  },
  {
    "city": "Petrel",
    "lat": "38.4789",
    "lng": "-0.7967",
    "country": "Spain",
    "iso2": "ES",
    "adminName": "Valencia",
    "capital": "",
    "population": "218843",
    "populationProper": "34241"
  },
  {
    "city": "Sabadell",
    "lat": "41.5483",
    "lng": "2.1075",
    "country": "Spain",
    "iso2": "ES",
    "adminName": "Catalonia",
    "capital": "",
    "population": "216520",
    "populationProper": "216520"
  },
  {
    "city": "Cartagena",
    "lat": "37.6000",
    "lng": "-0.9819",
    "country": "Spain",
    "iso2": "ES",
    "adminName": "Murcia",
    "capital": "",
    "population": "216108",
    "populationProper": "216108"
  },
  {
    "city": "Jerez de la Frontera",
    "lat": "36.6817",
    "lng": "-6.1378",
    "country": "Spain",
    "iso2": "ES",
    "adminName": "Andalusia",
    "capital": "",
    "population": "213105",
    "populationProper": "213105"
  },
  {
    "city": "Santa Cruz",
    "lat": "28.4667",
    "lng": "-16.2500",
    "country": "Spain",
    "iso2": "ES",
    "adminName": "Canary Islands",
    "capital": "admin",
    "population": "209194",
    "populationProper": "209194"
  },
  {
    "city": "Pamplona",
    "lat": "42.8167",
    "lng": "-1.6500",
    "country": "Spain",
    "iso2": "ES",
    "adminName": "Navarre",
    "capital": "admin",
    "population": "203944",
    "populationProper": "203944"
  },
  {
    "city": "León",
    "lat": "42.6056",
    "lng": "-5.5700",
    "country": "Spain",
    "iso2": "ES",
    "adminName": "Castille-Leon",
    "capital": "minor",
    "population": "202793",
    "populationProper": "124028"
  },
  {
    "city": "Almería",
    "lat": "36.8403",
    "lng": "-2.4681",
    "country": "Spain",
    "iso2": "ES",
    "adminName": "Andalusia",
    "capital": "minor",
    "population": "201322",
    "populationProper": "201322"
  },
  {
    "city": "Logroño",
    "lat": "42.4650",
    "lng": "-2.4456",
    "country": "Spain",
    "iso2": "ES",
    "adminName": "La Rioja",
    "capital": "admin",
    "population": "197000",
    "populationProper": "152485"
  },
  {
    "city": "Fuenlabrada",
    "lat": "40.2833",
    "lng": "-3.8000",
    "country": "Spain",
    "iso2": "ES",
    "adminName": "Madrid",
    "capital": "",
    "population": "194514",
    "populationProper": "194514"
  },
  {
    "city": "Leganés",
    "lat": "40.3281",
    "lng": "-3.7644",
    "country": "Spain",
    "iso2": "ES",
    "adminName": "Madrid",
    "capital": "",
    "population": "191114",
    "populationProper": "191114"
  },
  {
    "city": "Donostia",
    "lat": "43.3200",
    "lng": "-1.9800",
    "country": "Spain",
    "iso2": "ES",
    "adminName": "Basque Country",
    "capital": "minor",
    "population": "188240",
    "populationProper": "188240"
  },
  {
    "city": "Mataró",
    "lat": "41.5421",
    "lng": "2.4445",
    "country": "Spain",
    "iso2": "ES",
    "adminName": "Catalonia",
    "capital": "",
    "population": "183293",
    "populationProper": "116359"
  },
  {
    "city": "Albacete",
    "lat": "38.9956",
    "lng": "-1.8558",
    "country": "Spain",
    "iso2": "ES",
    "adminName": "Castille-La Mancha",
    "capital": "minor",
    "population": "174336",
    "populationProper": "174336"
  },
  {
    "city": "Castellón de la Plana",
    "lat": "39.9831",
    "lng": "-0.0331",
    "country": "Spain",
    "iso2": "ES",
    "adminName": "Valencia",
    "capital": "minor",
    "population": "174264",
    "populationProper": "174264"
  },
  {
    "city": "Santander",
    "lat": "43.4628",
    "lng": "-3.8050",
    "country": "Spain",
    "iso2": "ES",
    "adminName": "Cantabria",
    "capital": "admin",
    "population": "173375",
    "populationProper": "173375"
  },
  {
    "city": "Getafe",
    "lat": "40.3047",
    "lng": "-3.7311",
    "country": "Spain",
    "iso2": "ES",
    "adminName": "Madrid",
    "capital": "",
    "population": "173057",
    "populationProper": "173057"
  },
  {
    "city": "Alcorcón",
    "lat": "40.3500",
    "lng": "-3.8333",
    "country": "Spain",
    "iso2": "ES",
    "adminName": "Madrid",
    "capital": "",
    "population": "172384",
    "populationProper": "172384"
  },
  {
    "city": "Burgos",
    "lat": "42.3500",
    "lng": "-3.6822",
    "country": "Spain",
    "iso2": "ES",
    "adminName": "Castille-Leon",
    "capital": "minor",
    "population": "170183",
    "populationProper": "130319"
  },
  {
    "city": "Guadalajara",
    "lat": "40.6337",
    "lng": "-3.1674",
    "country": "Spain",
    "iso2": "ES",
    "adminName": "Castille-La Mancha",
    "capital": "minor",
    "population": "161683",
    "populationProper": "85871"
  },
  {
    "city": "La Laguna",
    "lat": "28.4853",
    "lng": "-16.3167",
    "country": "Spain",
    "iso2": "ES",
    "adminName": "Canary Islands",
    "capital": "",
    "population": "158911",
    "populationProper": "158911"
  },
  {
    "city": "Badajoz",
    "lat": "38.8803",
    "lng": "-6.9753",
    "country": "Spain",
    "iso2": "ES",
    "adminName": "Extremadura",
    "capital": "minor",
    "population": "150984",
    "populationProper": "150984"
  },
  {
    "city": "Marbella",
    "lat": "36.5167",
    "lng": "-4.8833",
    "country": "Spain",
    "iso2": "ES",
    "adminName": "Andalusia",
    "capital": "",
    "population": "147633",
    "populationProper": "147633"
  },
  {
    "city": "Salamanca",
    "lat": "40.9667",
    "lng": "-5.6639",
    "country": "Spain",
    "iso2": "ES",
    "adminName": "Castille-Leon",
    "capital": "minor",
    "population": "144825",
    "populationProper": "144825"
  },
  {
    "city": "Huelva",
    "lat": "37.2500",
    "lng": "-6.9500",
    "country": "Spain",
    "iso2": "ES",
    "adminName": "Andalusia",
    "capital": "minor",
    "population": "144174",
    "populationProper": "95290"
  },
  {
    "city": "Ciudad de Melilla",
    "lat": "35.2937",
    "lng": "-2.9383",
    "country": "Spain",
    "iso2": "ES",
    "adminName": "Melilla",
    "capital": "",
    "population": "141308",
    "populationProper": "73460"
  },
  {
    "city": "Tarragona",
    "lat": "41.1187",
    "lng": "1.2453",
    "country": "Spain",
    "iso2": "ES",
    "adminName": "Catalonia",
    "capital": "minor",
    "population": "136496",
    "populationProper": "136496"
  },
  {
    "city": "Dos Hermanas",
    "lat": "37.2836",
    "lng": "-5.9222",
    "country": "Spain",
    "iso2": "ES",
    "adminName": "Andalusia",
    "capital": "",
    "population": "135050",
    "populationProper": "135050"
  },
  {
    "city": "Torrejón de Ardoz",
    "lat": "40.4614",
    "lng": "-3.4978",
    "country": "Spain",
    "iso2": "ES",
    "adminName": "Madrid",
    "capital": "",
    "population": "127132",
    "populationProper": "127132"
  },
  {
    "city": "Algeciras",
    "lat": "36.1275",
    "lng": "-5.4539",
    "country": "Spain",
    "iso2": "ES",
    "adminName": "Andalusia",
    "capital": "",
    "population": "123078",
    "populationProper": "123078"
  },
  {
    "city": "Cádiz",
    "lat": "36.5350",
    "lng": "-6.2975",
    "country": "Spain",
    "iso2": "ES",
    "adminName": "Andalusia",
    "capital": "minor",
    "population": "115439",
    "populationProper": "115439"
  },
  {
    "city": "Jaén",
    "lat": "37.7667",
    "lng": "-3.7711",
    "country": "Spain",
    "iso2": "ES",
    "adminName": "Andalusia",
    "capital": "minor",
    "population": "112757",
    "populationProper": "112757"
  },
  {
    "city": "Reus",
    "lat": "41.1549",
    "lng": "1.1087",
    "country": "Spain",
    "iso2": "ES",
    "adminName": "Catalonia",
    "capital": "",
    "population": "106168",
    "populationProper": "106168"
  },
  {
    "city": "Girona",
    "lat": "41.9833",
    "lng": "2.8167",
    "country": "Spain",
    "iso2": "ES",
    "adminName": "Catalonia",
    "capital": "minor",
    "population": "103369",
    "populationProper": "103369"
  },
  {
    "city": "San Vicente de Baracaldo",
    "lat": "43.2972",
    "lng": "-2.9917",
    "country": "Spain",
    "iso2": "ES",
    "adminName": "Basque Country",
    "capital": "",
    "population": "101486",
    "populationProper": "101486"
  },
  {
    "city": "Lugo",
    "lat": "43.0167",
    "lng": "-7.5500",
    "country": "Spain",
    "iso2": "ES",
    "adminName": "Galicia",
    "capital": "minor",
    "population": "98519",
    "populationProper": "98519"
  },
  {
    "city": "Roquetas de Mar",
    "lat": "36.7642",
    "lng": "-2.6147",
    "country": "Spain",
    "iso2": "ES",
    "adminName": "Andalusia",
    "capital": "",
    "population": "98433",
    "populationProper": "98433"
  },
  {
    "city": "Cáceres",
    "lat": "39.4833",
    "lng": "-6.3667",
    "country": "Spain",
    "iso2": "ES",
    "adminName": "Extremadura",
    "capital": "minor",
    "population": "96255",
    "populationProper": "96255"
  },
  {
    "city": "Las Rozas de Madrid",
    "lat": "40.4917",
    "lng": "-3.8733",
    "country": "Spain",
    "iso2": "ES",
    "adminName": "Madrid",
    "capital": "",
    "population": "96113",
    "populationProper": "96113"
  },
  {
    "city": "Lorca",
    "lat": "37.6798",
    "lng": "-1.6944",
    "country": "Spain",
    "iso2": "ES",
    "adminName": "Murcia",
    "capital": "",
    "population": "95515",
    "populationProper": "95515"
  },
  {
    "city": "San Fernando",
    "lat": "36.4667",
    "lng": "-6.2000",
    "country": "Spain",
    "iso2": "ES",
    "adminName": "Andalusia",
    "capital": "",
    "population": "95001",
    "populationProper": "95001"
  },
  {
    "city": "San Cugat del Vallés",
    "lat": "41.4735",
    "lng": "2.0852",
    "country": "Spain",
    "iso2": "ES",
    "adminName": "Catalonia",
    "capital": "",
    "population": "92977",
    "populationProper": "92977"
  },
  {
    "city": "Santiago de Compostela",
    "lat": "42.8778",
    "lng": "-8.5444",
    "country": "Spain",
    "iso2": "ES",
    "adminName": "Galicia",
    "capital": "admin",
    "population": "92430",
    "populationProper": "83012"
  },
  {
    "city": "San Sebastián de los Reyes",
    "lat": "40.5469",
    "lng": "-3.6258",
    "country": "Spain",
    "iso2": "ES",
    "adminName": "Madrid",
    "capital": "",
    "population": "91224",
    "populationProper": "91224"
  },
  {
    "city": "Vaciamadrid",
    "lat": "40.3394",
    "lng": "-3.5181",
    "country": "Spain",
    "iso2": "ES",
    "adminName": "Madrid",
    "capital": "",
    "population": "90973",
    "populationProper": "90973"
  },
  {
    "city": "El Puerto de Santa María",
    "lat": "36.6000",
    "lng": "-6.2167",
    "country": "Spain",
    "iso2": "ES",
    "adminName": "Andalusia",
    "capital": "",
    "population": "88703",
    "populationProper": "88703"
  },
  {
    "city": "Toledo",
    "lat": "39.8567",
    "lng": "-4.0244",
    "country": "Spain",
    "iso2": "ES",
    "adminName": "Castille-La Mancha",
    "capital": "admin",
    "population": "85811",
    "populationProper": "85811"
  },
  {
    "city": "Mijas",
    "lat": "36.6000",
    "lng": "-4.6333",
    "country": "Spain",
    "iso2": "ES",
    "adminName": "Andalusia",
    "capital": "",
    "population": "85397",
    "populationProper": "85397"
  },
  {
    "city": "Chiclana de la Frontera",
    "lat": "36.4167",
    "lng": "-6.1500",
    "country": "Spain",
    "iso2": "ES",
    "adminName": "Andalusia",
    "capital": "",
    "population": "85150",
    "populationProper": "85150"
  },
  {
    "city": "Torrevieja",
    "lat": "37.9778",
    "lng": "-0.6833",
    "country": "Spain",
    "iso2": "ES",
    "adminName": "Valencia",
    "capital": "",
    "population": "84667",
    "populationProper": "84667"
  },
  {
    "city": "San Baudilio de Llobregat",
    "lat": "41.3458",
    "lng": "2.0417",
    "country": "Spain",
    "iso2": "ES",
    "adminName": "Catalonia",
    "capital": "",
    "population": "84500",
    "populationProper": "84500"
  },
  {
    "city": "Ciudad de Ceuta",
    "lat": "35.8867",
    "lng": "-5.3000",
    "country": "Spain",
    "iso2": "ES",
    "adminName": "Ceuta",
    "capital": "",
    "population": "84202",
    "populationProper": "84202"
  },
  {
    "city": "Torrente",
    "lat": "39.4365",
    "lng": "-0.4679",
    "country": "Spain",
    "iso2": "ES",
    "adminName": "Valencia",
    "capital": "",
    "population": "83962",
    "populationProper": "83962"
  },
  {
    "city": "El Ejido",
    "lat": "36.7831",
    "lng": "-2.8167",
    "country": "Spain",
    "iso2": "ES",
    "adminName": "Andalusia",
    "capital": "",
    "population": "83758",
    "populationProper": "83758"
  },
  {
    "city": "Pontevedra",
    "lat": "42.4333",
    "lng": "-8.6333",
    "country": "Spain",
    "iso2": "ES",
    "adminName": "Galicia",
    "capital": "minor",
    "population": "83260",
    "populationProper": "83260"
  },
  {
    "city": "Fuengirola",
    "lat": "36.5417",
    "lng": "-4.6250",
    "country": "Spain",
    "iso2": "ES",
    "adminName": "Andalusia",
    "capital": "",
    "population": "82837",
    "populationProper": "82837"
  },
  {
    "city": "Arona",
    "lat": "28.0996",
    "lng": "-16.6809",
    "country": "Spain",
    "iso2": "ES",
    "adminName": "Canary Islands",
    "capital": "",
    "population": "82777",
    "populationProper": "82777"
  },
  {
    "city": "Vélez-Málaga",
    "lat": "36.7833",
    "lng": "-4.1000",
    "country": "Spain",
    "iso2": "ES",
    "adminName": "Andalusia",
    "capital": "",
    "population": "82365",
    "populationProper": "82365"
  },
  {
    "city": "Rubí",
    "lat": "41.4933",
    "lng": "2.0325",
    "country": "Spain",
    "iso2": "ES",
    "adminName": "Catalonia",
    "capital": "",
    "population": "78591",
    "populationProper": "78591"
  },
  {
    "city": "Manresa",
    "lat": "41.7264",
    "lng": "1.8292",
    "country": "Spain",
    "iso2": "ES",
    "adminName": "Catalonia",
    "capital": "",
    "population": "78245",
    "populationProper": "78245"
  },
  {
    "city": "Avilés",
    "lat": "43.5561",
    "lng": "-5.9083",
    "country": "Spain",
    "iso2": "ES",
    "adminName": "Asturias",
    "capital": "",
    "population": "77791",
    "populationProper": "77791"
  },
  {
    "city": "Valdemoro",
    "lat": "40.1908",
    "lng": "-3.6742",
    "country": "Spain",
    "iso2": "ES",
    "adminName": "Madrid",
    "capital": "",
    "population": "77270",
    "populationProper": "77270"
  },
  {
    "city": "Gandía",
    "lat": "38.9667",
    "lng": "-0.1833",
    "country": "Spain",
    "iso2": "ES",
    "adminName": "Valencia",
    "capital": "",
    "population": "75798",
    "populationProper": "75798"
  },
  {
    "city": "Alcalá de Guadaira",
    "lat": "37.3333",
    "lng": "-5.8500",
    "country": "Spain",
    "iso2": "ES",
    "adminName": "Andalusia",
    "capital": "",
    "population": "75533",
    "populationProper": "75533"
  },
  {
    "city": "Molina de Segura",
    "lat": "38.0548",
    "lng": "-1.2131",
    "country": "Spain",
    "iso2": "ES",
    "adminName": "Murcia",
    "capital": "",
    "population": "73095",
    "populationProper": "73095"
  },
  {
    "city": "Majadahonda",
    "lat": "40.4728",
    "lng": "-3.8722",
    "country": "Spain",
    "iso2": "ES",
    "adminName": "Madrid",
    "capital": "",
    "population": "72155",
    "populationProper": "72155"
  },
  {
    "city": "Paterna",
    "lat": "39.5028",
    "lng": "-0.4406",
    "country": "Spain",
    "iso2": "ES",
    "adminName": "Valencia",
    "capital": "",
    "population": "71035",
    "populationProper": "71035"
  },
  {
    "city": "Benidorm",
    "lat": "38.5342",
    "lng": "-0.1314",
    "country": "Spain",
    "iso2": "ES",
    "adminName": "Valencia",
    "capital": "",
    "population": "70450",
    "populationProper": "70450"
  },
  {
    "city": "Sanlúcar de Barrameda",
    "lat": "36.7667",
    "lng": "-6.3500",
    "country": "Spain",
    "iso2": "ES",
    "adminName": "Andalusia",
    "capital": "",
    "population": "69205",
    "populationProper": "69205"
  },
  {
    "city": "Torremolinos",
    "lat": "36.6218",
    "lng": "-4.5003",
    "country": "Spain",
    "iso2": "ES",
    "adminName": "Andalusia",
    "capital": "",
    "population": "69166",
    "populationProper": "69166"
  },
  {
    "city": "Benalmádena",
    "lat": "36.6000",
    "lng": "-4.5167",
    "country": "Spain",
    "iso2": "ES",
    "adminName": "Andalusia",
    "capital": "",
    "population": "69144",
    "populationProper": "69144"
  },
  {
    "city": "Villanueva y Geltrú",
    "lat": "41.2243",
    "lng": "1.7259",
    "country": "Spain",
    "iso2": "ES",
    "adminName": "Catalonia",
    "capital": "",
    "population": "67733",
    "populationProper": "67733"
  },
  {
    "city": "Castelldefels",
    "lat": "41.2800",
    "lng": "1.9767",
    "country": "Spain",
    "iso2": "ES",
    "adminName": "Catalonia",
    "capital": "",
    "population": "67460",
    "populationProper": "67460"
  },
  {
    "city": "Viladecáns",
    "lat": "41.3158",
    "lng": "2.0194",
    "country": "Spain",
    "iso2": "ES",
    "adminName": "Catalonia",
    "capital": "",
    "population": "67197",
    "populationProper": "67197"
  },
  {
    "city": "Sagunto",
    "lat": "39.6764",
    "lng": "-0.2733",
    "country": "Spain",
    "iso2": "ES",
    "adminName": "Valencia",
    "capital": "",
    "population": "67173",
    "populationProper": "67173"
  },
  {
    "city": "Ferrol",
    "lat": "43.4844",
    "lng": "-8.2328",
    "country": "Spain",
    "iso2": "ES",
    "adminName": "Galicia",
    "capital": "",
    "population": "65560",
    "populationProper": "65560"
  },
  {
    "city": "El Prat de Llobregat",
    "lat": "41.3246",
    "lng": "2.0953",
    "country": "Spain",
    "iso2": "ES",
    "adminName": "Catalonia",
    "capital": "",
    "population": "65385",
    "populationProper": "65385"
  },
  {
    "city": "Arrecife",
    "lat": "28.9625",
    "lng": "-13.5506",
    "country": "Spain",
    "iso2": "ES",
    "adminName": "Canary Islands",
    "capital": "",
    "population": "64645",
    "populationProper": "64645"
  },
  {
    "city": "Collado-Villalba",
    "lat": "40.6333",
    "lng": "-4.0083",
    "country": "Spain",
    "iso2": "ES",
    "adminName": "Madrid",
    "capital": "",
    "population": "64378",
    "populationProper": "64378"
  },
  {
    "city": "La Línea de la Concepción",
    "lat": "36.1611",
    "lng": "-5.3486",
    "country": "Spain",
    "iso2": "ES",
    "adminName": "Andalusia",
    "capital": "",
    "population": "63630",
    "populationProper": "63630"
  },
  {
    "city": "Irún",
    "lat": "43.3378",
    "lng": "-1.7888",
    "country": "Spain",
    "iso2": "ES",
    "adminName": "Basque Country",
    "capital": "",
    "population": "62910",
    "populationProper": "62910"
  },
  {
    "city": "Granollers",
    "lat": "41.6083",
    "lng": "2.2889",
    "country": "Spain",
    "iso2": "ES",
    "adminName": "Catalonia",
    "capital": "",
    "population": "62419",
    "populationProper": "62419"
  },
  {
    "city": "Zamora",
    "lat": "41.5033",
    "lng": "-5.7556",
    "country": "Spain",
    "iso2": "ES",
    "adminName": "Castille-Leon",
    "capital": "minor",
    "population": "60988",
    "populationProper": "60988"
  },
  {
    "city": "Mérida",
    "lat": "38.9000",
    "lng": "-6.3333",
    "country": "Spain",
    "iso2": "ES",
    "adminName": "Extremadura",
    "capital": "admin",
    "population": "59548",
    "populationProper": "59548"
  },
  {
    "city": "Alcoy",
    "lat": "38.6983",
    "lng": "-0.4736",
    "country": "Spain",
    "iso2": "ES",
    "adminName": "Valencia",
    "capital": "",
    "population": "59354",
    "populationProper": "59354"
  },
  {
    "city": "San Vicente del Raspeig",
    "lat": "38.3964",
    "lng": "-0.5253",
    "country": "Spain",
    "iso2": "ES",
    "adminName": "Valencia",
    "capital": "",
    "population": "58978",
    "populationProper": "58978"
  },
  {
    "city": "Motril",
    "lat": "36.7500",
    "lng": "-3.5167",
    "country": "Spain",
    "iso2": "ES",
    "adminName": "Andalusia",
    "capital": "",
    "population": "58460",
    "populationProper": "58460"
  },
  {
    "city": "Ávila",
    "lat": "40.6500",
    "lng": "-4.6833",
    "country": "Spain",
    "iso2": "ES",
    "adminName": "Castille-Leon",
    "capital": "minor",
    "population": "58369",
    "populationProper": "58369"
  },
  {
    "city": "Linares",
    "lat": "38.0833",
    "lng": "-3.6333",
    "country": "Spain",
    "iso2": "ES",
    "adminName": "Andalusia",
    "capital": "",
    "population": "57414",
    "populationProper": "57353"
  },
  {
    "city": "Cuenca",
    "lat": "40.0667",
    "lng": "-2.1500",
    "country": "Spain",
    "iso2": "ES",
    "adminName": "Castille-La Mancha",
    "capital": "minor",
    "population": "54621",
    "populationProper": "54621"
  },
  {
    "city": "Huesca",
    "lat": "42.1333",
    "lng": "-0.4167",
    "country": "Spain",
    "iso2": "ES",
    "adminName": "Aragon",
    "capital": "minor",
    "population": "53956",
    "populationProper": "53956"
  },
  {
    "city": "San Bartolomé",
    "lat": "27.9254",
    "lng": "-15.5726",
    "country": "Spain",
    "iso2": "ES",
    "adminName": "Canary Islands",
    "capital": "",
    "population": "53397",
    "populationProper": "53397"
  },
  {
    "city": "Pinto",
    "lat": "40.2500",
    "lng": "-3.7000",
    "country": "Spain",
    "iso2": "ES",
    "adminName": "Madrid",
    "capital": "",
    "population": "53325",
    "populationProper": "53325"
  },
  {
    "city": "Elda",
    "lat": "38.4789",
    "lng": "-0.7967",
    "country": "Spain",
    "iso2": "ES",
    "adminName": "Valencia",
    "capital": "",
    "population": "52813",
    "populationProper": "52813"
  },
  {
    "city": "Colmenar Viejo",
    "lat": "40.6589",
    "lng": "-3.7658",
    "country": "Spain",
    "iso2": "ES",
    "adminName": "Madrid",
    "capital": "",
    "population": "51938",
    "populationProper": "51938"
  },
  {
    "city": "Mollet",
    "lat": "41.5356",
    "lng": "2.2107",
    "country": "Spain",
    "iso2": "ES",
    "adminName": "Catalonia",
    "capital": "",
    "population": "51600",
    "populationProper": "51600"
  },
  {
    "city": "Torrelavega",
    "lat": "43.3531",
    "lng": "-4.0458",
    "country": "Spain",
    "iso2": "ES",
    "adminName": "Cantabria",
    "capital": "",
    "population": "51597",
    "populationProper": "51597"
  },
  {
    "city": "Pola de Siero",
    "lat": "43.3833",
    "lng": "-5.6500",
    "country": "Spain",
    "iso2": "ES",
    "adminName": "Asturias",
    "capital": "",
    "population": "51509",
    "populationProper": "51509"
  },
  {
    "city": "Villareal",
    "lat": "39.9378",
    "lng": "-0.1014",
    "country": "Spain",
    "iso2": "ES",
    "adminName": "Valencia",
    "capital": "",
    "population": "51293",
    "populationProper": "51293"
  },
  {
    "city": "Granadilla de Abona",
    "lat": "28.1167",
    "lng": "-16.5833",
    "country": "Spain",
    "iso2": "ES",
    "adminName": "Canary Islands",
    "capital": "",
    "population": "51233",
    "populationProper": "51233"
  },
  {
    "city": "Ibiza",
    "lat": "38.9089",
    "lng": "1.4328",
    "country": "Spain",
    "iso2": "ES",
    "adminName": "Balearic Islands",
    "capital": "",
    "population": "51128",
    "populationProper": "51128"
  },
  {
    "city": "Utrera",
    "lat": "37.1830",
    "lng": "-5.7670",
    "country": "Spain",
    "iso2": "ES",
    "adminName": "Andalusia",
    "capital": "",
    "population": "50962",
    "populationProper": "50962"
  },
  {
    "city": "Adeje",
    "lat": "28.1167",
    "lng": "-16.7167",
    "country": "Spain",
    "iso2": "ES",
    "adminName": "Canary Islands",
    "capital": "",
    "population": "49030",
    "populationProper": "49030"
  },
  {
    "city": "Rincón de la Victoria",
    "lat": "36.7167",
    "lng": "-4.2833",
    "country": "Spain",
    "iso2": "ES",
    "adminName": "Andalusia",
    "capital": "",
    "population": "48768",
    "populationProper": "48768"
  },
  {
    "city": "Figueras",
    "lat": "42.2667",
    "lng": "2.9650",
    "country": "Spain",
    "iso2": "ES",
    "adminName": "Catalonia",
    "capital": "",
    "population": "47235",
    "populationProper": "47235"
  },
  {
    "city": "Esplugas de Llobregat",
    "lat": "41.3767",
    "lng": "2.0858",
    "country": "Spain",
    "iso2": "ES",
    "adminName": "Catalonia",
    "capital": "",
    "population": "47150",
    "populationProper": "47150"
  },
  {
    "city": "Gavá",
    "lat": "41.3072",
    "lng": "2.0039",
    "country": "Spain",
    "iso2": "ES",
    "adminName": "Catalonia",
    "capital": "",
    "population": "47057",
    "populationProper": "47057"
  },
  {
    "city": "Puertollano",
    "lat": "38.6833",
    "lng": "-4.1167",
    "country": "Spain",
    "iso2": "ES",
    "adminName": "Castille-La Mancha",
    "capital": "",
    "population": "47035",
    "populationProper": "46607"
  },
  {
    "city": "Mairena del Aljarafe",
    "lat": "37.3333",
    "lng": "-6.0667",
    "country": "Spain",
    "iso2": "ES",
    "adminName": "Andalusia",
    "capital": "",
    "population": "46555",
    "populationProper": "46555"
  },
  {
    "city": "Santurce-Antiguo",
    "lat": "43.3303",
    "lng": "-3.0314",
    "country": "Spain",
    "iso2": "ES",
    "adminName": "Basque Country",
    "capital": "",
    "population": "46069",
    "populationProper": "46069"
  },
  {
    "city": "Portugalete",
    "lat": "43.3194",
    "lng": "-3.0194",
    "country": "Spain",
    "iso2": "ES",
    "adminName": "Basque Country",
    "capital": "",
    "population": "45746",
    "populationProper": "45746"
  },
  {
    "city": "San Felíu de Llobregat",
    "lat": "41.3833",
    "lng": "2.0439",
    "country": "Spain",
    "iso2": "ES",
    "adminName": "Catalonia",
    "capital": "",
    "population": "45467",
    "populationProper": "45467"
  },
  {
    "city": "Alcira",
    "lat": "39.1500",
    "lng": "-0.4350",
    "country": "Spain",
    "iso2": "ES",
    "adminName": "Valencia",
    "capital": "",
    "population": "44938",
    "populationProper": "44938"
  },
  {
    "city": "Manacor",
    "lat": "39.5700",
    "lng": "3.2089",
    "country": "Spain",
    "iso2": "ES",
    "adminName": "Balearic Islands",
    "capital": "",
    "population": "44527",
    "populationProper": "44527"
  },
  {
    "city": "Mislata",
    "lat": "39.4750",
    "lng": "-0.4156",
    "country": "Spain",
    "iso2": "ES",
    "adminName": "Valencia",
    "capital": "",
    "population": "44320",
    "populationProper": "44320"
  },
  {
    "city": "Denia",
    "lat": "38.8444",
    "lng": "0.1111",
    "country": "Spain",
    "iso2": "ES",
    "adminName": "Valencia",
    "capital": "",
    "population": "42827",
    "populationProper": "42827"
  },
  {
    "city": "Lucena",
    "lat": "37.4000",
    "lng": "-4.4833",
    "country": "Spain",
    "iso2": "ES",
    "adminName": "Andalusia",
    "capital": "",
    "population": "42733",
    "populationProper": "42733"
  },
  {
    "city": "Alcantarilla",
    "lat": "37.9722",
    "lng": "-1.2094",
    "country": "Spain",
    "iso2": "ES",
    "adminName": "Murcia",
    "capital": "",
    "population": "42345",
    "populationProper": "42345"
  },
  {
    "city": "La Orotava",
    "lat": "28.3667",
    "lng": "-16.5167",
    "country": "Spain",
    "iso2": "ES",
    "adminName": "Canary Islands",
    "capital": "",
    "population": "42187",
    "populationProper": "42187"
  },
  {
    "city": "Puerto del Rosario",
    "lat": "28.5000",
    "lng": "-13.8667",
    "country": "Spain",
    "iso2": "ES",
    "adminName": "Canary Islands",
    "capital": "",
    "population": "41808",
    "populationProper": "41808"
  },
  {
    "city": "Puerto Real",
    "lat": "36.5292",
    "lng": "-6.1919",
    "country": "Spain",
    "iso2": "ES",
    "adminName": "Andalusia",
    "capital": "",
    "population": "41700",
    "populationProper": "41700"
  },
  {
    "city": "Antequera",
    "lat": "37.0183",
    "lng": "-4.5597",
    "country": "Spain",
    "iso2": "ES",
    "adminName": "Andalusia",
    "capital": "",
    "population": "41318",
    "populationProper": "41318"
  },
  {
    "city": "Alhaurín de la Torre",
    "lat": "36.6667",
    "lng": "-4.5500",
    "country": "Spain",
    "iso2": "ES",
    "adminName": "Andalusia",
    "capital": "",
    "population": "41170",
    "populationProper": "41170"
  },
  {
    "city": "Igualada",
    "lat": "41.5814",
    "lng": "1.6208",
    "country": "Spain",
    "iso2": "ES",
    "adminName": "Catalonia",
    "capital": "",
    "population": "40742",
    "populationProper": "40742"
  },
  {
    "city": "Villafranca del Panadés",
    "lat": "41.3447",
    "lng": "1.6994",
    "country": "Spain",
    "iso2": "ES",
    "adminName": "Catalonia",
    "capital": "",
    "population": "40154",
    "populationProper": "40154"
  },
  {
    "city": "Blanes",
    "lat": "41.6740",
    "lng": "2.7921",
    "country": "Spain",
    "iso2": "ES",
    "adminName": "Catalonia",
    "capital": "",
    "population": "39914",
    "populationProper": "39914"
  },
  {
    "city": "Écija",
    "lat": "37.5333",
    "lng": "-5.0833",
    "country": "Spain",
    "iso2": "ES",
    "adminName": "Andalusia",
    "capital": "",
    "population": "39893",
    "populationProper": "39893"
  },
  {
    "city": "Plasencia",
    "lat": "40.0275",
    "lng": "-6.0908",
    "country": "Spain",
    "iso2": "ES",
    "adminName": "Extremadura",
    "capital": "",
    "population": "39860",
    "populationProper": "39860"
  },
  {
    "city": "San Fernando de Henares",
    "lat": "40.4256",
    "lng": "-3.5353",
    "country": "Spain",
    "iso2": "ES",
    "adminName": "Madrid",
    "capital": "",
    "population": "39566",
    "populationProper": "39566"
  },
  {
    "city": "Santa Eulalia del Río",
    "lat": "38.9847",
    "lng": "1.5336",
    "country": "Spain",
    "iso2": "ES",
    "adminName": "Balearic Islands",
    "capital": "",
    "population": "39358",
    "populationProper": "39358"
  },
  {
    "city": "Sama",
    "lat": "43.3000",
    "lng": "-5.6833",
    "country": "Spain",
    "iso2": "ES",
    "adminName": "Asturias",
    "capital": "",
    "population": "39183",
    "populationProper": "39183"
  },
  {
    "city": "Lloret de Mar",
    "lat": "41.7000",
    "lng": "2.8333",
    "country": "Spain",
    "iso2": "ES",
    "adminName": "Catalonia",
    "capital": "",
    "population": "39089",
    "populationProper": "39089"
  },
  {
    "city": "Narón",
    "lat": "43.5500",
    "lng": "-8.1500",
    "country": "Spain",
    "iso2": "ES",
    "adminName": "Galicia",
    "capital": "",
    "population": "39056",
    "populationProper": "39056"
  },
  {
    "city": "Burjasot",
    "lat": "39.5064",
    "lng": "-0.4067",
    "country": "Spain",
    "iso2": "ES",
    "adminName": "Valencia",
    "capital": "",
    "population": "38632",
    "populationProper": "38632"
  },
  {
    "city": "Los Palacios y Villafranca",
    "lat": "37.1625",
    "lng": "-5.9242",
    "country": "Spain",
    "iso2": "ES",
    "adminName": "Andalusia",
    "capital": "",
    "population": "38548",
    "populationProper": "38548"
  },
  {
    "city": "Vendrell",
    "lat": "41.2201",
    "lng": "1.5348",
    "country": "Spain",
    "iso2": "ES",
    "adminName": "Catalonia",
    "capital": "",
    "population": "38373",
    "populationProper": "38373"
  },
  {
    "city": "Ripollet",
    "lat": "41.4969",
    "lng": "2.1574",
    "country": "Spain",
    "iso2": "ES",
    "adminName": "Catalonia",
    "capital": "",
    "population": "38347",
    "populationProper": "38347"
  },
  {
    "city": "Lluchmayor",
    "lat": "39.4900",
    "lng": "2.8915",
    "country": "Spain",
    "iso2": "ES",
    "adminName": "Balearic Islands",
    "capital": "",
    "population": "37752",
    "populationProper": "37752"
  },
  {
    "city": "Marratxi",
    "lat": "39.6421",
    "lng": "2.7527",
    "country": "Spain",
    "iso2": "ES",
    "adminName": "Balearic Islands",
    "capital": "",
    "population": "37724",
    "populationProper": "37724"
  },
  {
    "city": "Villagarcía de Arosa",
    "lat": "42.5977",
    "lng": "-8.7632",
    "country": "Spain",
    "iso2": "ES",
    "adminName": "Galicia",
    "capital": "",
    "population": "37565",
    "populationProper": "37565"
  },
  {
    "city": "Mieres",
    "lat": "43.2508",
    "lng": "-5.7767",
    "country": "Spain",
    "iso2": "ES",
    "adminName": "Asturias",
    "capital": "",
    "population": "37537",
    "populationProper": "37537"
  },
  {
    "city": "San Adrián de Besós",
    "lat": "41.4305",
    "lng": "2.2183",
    "country": "Spain",
    "iso2": "ES",
    "adminName": "Catalonia",
    "capital": "",
    "population": "37447",
    "populationProper": "37447"
  },
  {
    "city": "Don Benito",
    "lat": "38.9545",
    "lng": "-5.8617",
    "country": "Spain",
    "iso2": "ES",
    "adminName": "Extremadura",
    "capital": "",
    "population": "37284",
    "populationProper": "37284"
  },
  {
    "city": "Tudela",
    "lat": "42.0653",
    "lng": "-1.6067",
    "country": "Spain",
    "iso2": "ES",
    "adminName": "Navarre",
    "capital": "",
    "population": "37042",
    "populationProper": "37042"
  },
  {
    "city": "Moncada",
    "lat": "41.4867",
    "lng": "2.1879",
    "country": "Spain",
    "iso2": "ES",
    "adminName": "Catalonia",
    "capital": "",
    "population": "36803",
    "populationProper": "36803"
  },
  {
    "city": "Andújar",
    "lat": "38.0392",
    "lng": "-4.0506",
    "country": "Spain",
    "iso2": "ES",
    "adminName": "Andalusia",
    "capital": "",
    "population": "36615",
    "populationProper": "36615"
  },
  {
    "city": "Oleiros",
    "lat": "43.3333",
    "lng": "-8.3166",
    "country": "Spain",
    "iso2": "ES",
    "adminName": "Galicia",
    "capital": "",
    "population": "36534",
    "populationProper": "36534"
  },
  {
    "city": "Torre-Pacheco",
    "lat": "37.7333",
    "lng": "-0.9500",
    "country": "Spain",
    "iso2": "ES",
    "adminName": "Murcia",
    "capital": "",
    "population": "36464",
    "populationProper": "36464"
  },
  {
    "city": "Tomelloso",
    "lat": "39.1578",
    "lng": "-3.0208",
    "country": "Spain",
    "iso2": "ES",
    "adminName": "Castille-La Mancha",
    "capital": "",
    "population": "36168",
    "populationProper": "36168"
  },
  {
    "city": "Olot",
    "lat": "42.1822",
    "lng": "2.4890",
    "country": "Spain",
    "iso2": "ES",
    "adminName": "Catalonia",
    "capital": "",
    "population": "35926",
    "populationProper": "35926"
  },
  {
    "city": "Onteniente",
    "lat": "38.8222",
    "lng": "-0.6072",
    "country": "Spain",
    "iso2": "ES",
    "adminName": "Valencia",
    "capital": "",
    "population": "35761",
    "populationProper": "35761"
  },
  {
    "city": "Miranda de Ebro",
    "lat": "42.6833",
    "lng": "-2.9333",
    "country": "Spain",
    "iso2": "ES",
    "adminName": "Castille-Leon",
    "capital": "",
    "population": "35760",
    "populationProper": "35760"
  },
  {
    "city": "Águilas",
    "lat": "37.4042",
    "lng": "-1.5819",
    "country": "Spain",
    "iso2": "ES",
    "adminName": "Murcia",
    "capital": "",
    "population": "35722",
    "populationProper": "35722"
  },
  {
    "city": "Teruel",
    "lat": "40.3456",
    "lng": "-1.1065",
    "country": "Spain",
    "iso2": "ES",
    "adminName": "Aragon",
    "capital": "minor",
    "population": "35691",
    "populationProper": "35691"
  },
  {
    "city": "Cieza",
    "lat": "38.2392",
    "lng": "-1.4189",
    "country": "Spain",
    "iso2": "ES",
    "adminName": "Murcia",
    "capital": "",
    "population": "35283",
    "populationProper": "35283"
  },
  {
    "city": "Villajoyosa",
    "lat": "38.5053",
    "lng": "-0.2328",
    "country": "Spain",
    "iso2": "ES",
    "adminName": "Valencia",
    "capital": "",
    "population": "35199",
    "populationProper": "35199"
  },
  {
    "city": "Burriana",
    "lat": "39.8894",
    "lng": "-0.0925",
    "country": "Spain",
    "iso2": "ES",
    "adminName": "Valencia",
    "capital": "",
    "population": "35052",
    "populationProper": "35052"
  },
  {
    "city": "Cambrils",
    "lat": "41.0670",
    "lng": "1.0564",
    "country": "Spain",
    "iso2": "ES",
    "adminName": "Catalonia",
    "capital": "",
    "population": "34734",
    "populationProper": "34734"
  },
  {
    "city": "San Juan Despí",
    "lat": "41.3668",
    "lng": "2.0570",
    "country": "Spain",
    "iso2": "ES",
    "adminName": "Catalonia",
    "capital": "",
    "population": "34267",
    "populationProper": "34267"
  },
  {
    "city": "Villena",
    "lat": "38.6350",
    "lng": "-0.8658",
    "country": "Spain",
    "iso2": "ES",
    "adminName": "Valencia",
    "capital": "",
    "population": "34155",
    "populationProper": "34155"
  },
  {
    "city": "Almendralejo",
    "lat": "38.6833",
    "lng": "-6.4167",
    "country": "Spain",
    "iso2": "ES",
    "adminName": "Extremadura",
    "capital": "",
    "population": "33855",
    "populationProper": "33855"
  },
  {
    "city": "Ronda",
    "lat": "36.7461",
    "lng": "-5.1611",
    "country": "Spain",
    "iso2": "ES",
    "adminName": "Andalusia",
    "capital": "",
    "population": "33730",
    "populationProper": "33730"
  },
  {
    "city": "Inca",
    "lat": "39.7167",
    "lng": "2.9167",
    "country": "Spain",
    "iso2": "ES",
    "adminName": "Balearic Islands",
    "capital": "",
    "population": "33679",
    "populationProper": "33679"
  },
  {
    "city": "Tortosa",
    "lat": "40.8125",
    "lng": "0.5211",
    "country": "Spain",
    "iso2": "ES",
    "adminName": "Catalonia",
    "capital": "",
    "population": "33439",
    "populationProper": "33439"
  },
  {
    "city": "Santa Pola",
    "lat": "38.1897",
    "lng": "-0.5556",
    "country": "Spain",
    "iso2": "ES",
    "adminName": "Valencia",
    "capital": "",
    "population": "33303",
    "populationProper": "33303"
  },
  {
    "city": "Aranda de Duero",
    "lat": "41.6833",
    "lng": "-3.6833",
    "country": "Spain",
    "iso2": "ES",
    "adminName": "Castille-Leon",
    "capital": "",
    "population": "33187",
    "populationProper": "33187"
  },
  {
    "city": "San Javier",
    "lat": "37.8037",
    "lng": "-0.8343",
    "country": "Spain",
    "iso2": "ES",
    "adminName": "Murcia",
    "capital": "",
    "population": "33129",
    "populationProper": "33129"
  },
  {
    "city": "Mazarrón",
    "lat": "37.5983",
    "lng": "-1.3139",
    "country": "Spain",
    "iso2": "ES",
    "adminName": "Murcia",
    "capital": "",
    "population": "32839",
    "populationProper": "32839"
  },
  {
    "city": "Arteijo",
    "lat": "43.3044",
    "lng": "-8.5114",
    "country": "Spain",
    "iso2": "ES",
    "adminName": "Galicia",
    "capital": "",
    "population": "32738",
    "populationProper": "32738"
  },
  {
    "city": "Totana",
    "lat": "37.7711",
    "lng": "-1.5003",
    "country": "Spain",
    "iso2": "ES",
    "adminName": "Murcia",
    "capital": "",
    "population": "32529",
    "populationProper": "32529"
  },
  {
    "city": "Castro-Urdiales",
    "lat": "43.3844",
    "lng": "-3.2150",
    "country": "Spain",
    "iso2": "ES",
    "adminName": "Cantabria",
    "capital": "",
    "population": "32270",
    "populationProper": "32270"
  },
  {
    "city": "Aldaya",
    "lat": "39.4639",
    "lng": "-0.4628",
    "country": "Spain",
    "iso2": "ES",
    "adminName": "Valencia",
    "capital": "",
    "population": "32204",
    "populationProper": "32204"
  },
  {
    "city": "Salt",
    "lat": "41.9761",
    "lng": "2.7881",
    "country": "Spain",
    "iso2": "ES",
    "adminName": "Catalonia",
    "capital": "",
    "population": "32138",
    "populationProper": "32138"
  },
  {
    "city": "Vall de Uxó",
    "lat": "39.8236",
    "lng": "-0.2317",
    "country": "Spain",
    "iso2": "ES",
    "adminName": "Valencia",
    "capital": "",
    "population": "31681",
    "populationProper": "31681"
  },
  {
    "city": "Níjar",
    "lat": "36.9667",
    "lng": "-2.2000",
    "country": "Spain",
    "iso2": "ES",
    "adminName": "Andalusia",
    "capital": "",
    "population": "31666",
    "populationProper": "31666"
  },
  {
    "city": "San Roque",
    "lat": "36.2097",
    "lng": "-5.3844",
    "country": "Spain",
    "iso2": "ES",
    "adminName": "Andalusia",
    "capital": "",
    "population": "31571",
    "populationProper": "31571"
  },
  {
    "city": "Carballo",
    "lat": "43.2167",
    "lng": "-8.6833",
    "country": "Spain",
    "iso2": "ES",
    "adminName": "Galicia",
    "capital": "",
    "population": "31429",
    "populationProper": "31429"
  },
  {
    "city": "Arroyomolinos",
    "lat": "40.2667",
    "lng": "-3.9000",
    "country": "Spain",
    "iso2": "ES",
    "adminName": "Madrid",
    "capital": "",
    "population": "31396",
    "populationProper": "31396"
  },
  {
    "city": "Manises",
    "lat": "39.4833",
    "lng": "-0.4500",
    "country": "Spain",
    "iso2": "ES",
    "adminName": "Valencia",
    "capital": "",
    "population": "31240",
    "populationProper": "31240"
  },
  {
    "city": "San Pedro de Ribas",
    "lat": "41.2592",
    "lng": "1.7730",
    "country": "Spain",
    "iso2": "ES",
    "adminName": "Catalonia",
    "capital": "",
    "population": "31111",
    "populationProper": "31111"
  },
  {
    "city": "Coria del Río",
    "lat": "37.2833",
    "lng": "-6.0500",
    "country": "Spain",
    "iso2": "ES",
    "adminName": "Andalusia",
    "capital": "",
    "population": "30908",
    "populationProper": "30908"
  },
  {
    "city": "Arcos de la Frontera",
    "lat": "36.7500",
    "lng": "-5.8000",
    "country": "Spain",
    "iso2": "ES",
    "adminName": "Andalusia",
    "capital": "",
    "population": "30818",
    "populationProper": "30818"
  },
  {
    "city": "Alcázar de San Juan",
    "lat": "39.4056",
    "lng": "-3.2056",
    "country": "Spain",
    "iso2": "ES",
    "adminName": "Castille-La Mancha",
    "capital": "",
    "population": "30766",
    "populationProper": "30766"
  },
  {
    "city": "Culleredo",
    "lat": "43.2883",
    "lng": "-8.3894",
    "country": "Spain",
    "iso2": "ES",
    "adminName": "Galicia",
    "capital": "",
    "population": "30685",
    "populationProper": "30685"
  },
  {
    "city": "San Andrés del Rabanedo",
    "lat": "42.6167",
    "lng": "-5.6000",
    "country": "Spain",
    "iso2": "ES",
    "adminName": "Castille-Leon",
    "capital": "",
    "population": "30549",
    "populationProper": "30549"
  },
  {
    "city": "Puerto de la Cruz",
    "lat": "28.4167",
    "lng": "-16.5500",
    "country": "Spain",
    "iso2": "ES",
    "adminName": "Canary Islands",
    "capital": "",
    "population": "30492",
    "populationProper": "30492"
  },
  {
    "city": "Valdepeñas",
    "lat": "38.7667",
    "lng": "-3.4000",
    "country": "Spain",
    "iso2": "ES",
    "adminName": "Castille-La Mancha",
    "capital": "",
    "population": "30252",
    "populationProper": "30252"
  },
  {
    "city": "Chirivella",
    "lat": "39.4656",
    "lng": "-0.4267",
    "country": "Spain",
    "iso2": "ES",
    "adminName": "Valencia",
    "capital": "",
    "population": "30197",
    "populationProper": "30197"
  },
  {
    "city": "Durango",
    "lat": "43.1689",
    "lng": "-2.6300",
    "country": "Spain",
    "iso2": "ES",
    "adminName": "Basque Country",
    "capital": "",
    "population": "30118",
    "populationProper": "30118"
  },
  {
    "city": "Puente-Genil",
    "lat": "37.3833",
    "lng": "-4.7667",
    "country": "Spain",
    "iso2": "ES",
    "adminName": "Andalusia",
    "capital": "",
    "population": "29943",
    "populationProper": "29943"
  },
  {
    "city": "Alacuás",
    "lat": "39.4583",
    "lng": "-0.4628",
    "country": "Spain",
    "iso2": "ES",
    "adminName": "Valencia",
    "capital": "",
    "population": "29711",
    "populationProper": "29711"
  },
  {
    "city": "Mahón",
    "lat": "39.8894",
    "lng": "4.2642",
    "country": "Spain",
    "iso2": "ES",
    "adminName": "Balearic Islands",
    "capital": "",
    "population": "29592",
    "populationProper": "29592"
  },
  {
    "city": "Sitges",
    "lat": "41.2339",
    "lng": "1.8042",
    "country": "Spain",
    "iso2": "ES",
    "adminName": "Catalonia",
    "capital": "",
    "population": "29553",
    "populationProper": "29553"
  },
  {
    "city": "Crevillente",
    "lat": "38.2486",
    "lng": "-0.8089",
    "country": "Spain",
    "iso2": "ES",
    "adminName": "Valencia",
    "capital": "",
    "population": "29536",
    "populationProper": "29536"
  },
  {
    "city": "Galdácano",
    "lat": "43.2306",
    "lng": "-2.8458",
    "country": "Spain",
    "iso2": "ES",
    "adminName": "Basque Country",
    "capital": "",
    "population": "29427",
    "populationProper": "29427"
  },
  {
    "city": "Rota",
    "lat": "36.6167",
    "lng": "-6.3500",
    "country": "Spain",
    "iso2": "ES",
    "adminName": "Andalusia",
    "capital": "",
    "population": "29282",
    "populationProper": "29282"
  },
  {
    "city": "Redondela",
    "lat": "42.2833",
    "lng": "-8.6167",
    "country": "Spain",
    "iso2": "ES",
    "adminName": "Galicia",
    "capital": "",
    "population": "29241",
    "populationProper": "29241"
  },
  {
    "city": "Campello",
    "lat": "38.4275",
    "lng": "-0.4011",
    "country": "Spain",
    "iso2": "ES",
    "adminName": "Valencia",
    "capital": "",
    "population": "28930",
    "populationProper": "28930"
  },
  {
    "city": "Vinaroz",
    "lat": "40.4686",
    "lng": "0.4736",
    "country": "Spain",
    "iso2": "ES",
    "adminName": "Valencia",
    "capital": "",
    "population": "28833",
    "populationProper": "28833"
  },
  {
    "city": "Martorell",
    "lat": "41.4744",
    "lng": "1.9305",
    "country": "Spain",
    "iso2": "ES",
    "adminName": "Catalonia",
    "capital": "",
    "population": "28772",
    "populationProper": "28772"
  },
  {
    "city": "Catarroja",
    "lat": "39.4028",
    "lng": "-0.4044",
    "country": "Spain",
    "iso2": "ES",
    "adminName": "Valencia",
    "capital": "",
    "population": "28608",
    "populationProper": "28608"
  },
  {
    "city": "Premiá de Mar",
    "lat": "41.4920",
    "lng": "2.3620",
    "country": "Spain",
    "iso2": "ES",
    "adminName": "Catalonia",
    "capital": "",
    "population": "28531",
    "populationProper": "28531"
  },
  {
    "city": "Salou",
    "lat": "41.0796",
    "lng": "1.1316",
    "country": "Spain",
    "iso2": "ES",
    "adminName": "Catalonia",
    "capital": "",
    "population": "28526",
    "populationProper": "28526"
  },
  {
    "city": "Candelaria",
    "lat": "28.3547",
    "lng": "-16.3710",
    "country": "Spain",
    "iso2": "ES",
    "adminName": "Canary Islands",
    "capital": "",
    "population": "28383",
    "populationProper": "28383"
  },
  {
    "city": "Jávea",
    "lat": "38.7892",
    "lng": "0.1631",
    "country": "Spain",
    "iso2": "ES",
    "adminName": "Castille-La Mancha",
    "capital": "",
    "population": "28016",
    "populationProper": "28016"
  },
  {
    "city": "Lepe",
    "lat": "37.2542",
    "lng": "-7.2033",
    "country": "Spain",
    "iso2": "ES",
    "adminName": "Andalusia",
    "capital": "",
    "population": "27880",
    "populationProper": "27880"
  },
  {
    "city": "Éibar",
    "lat": "43.1843",
    "lng": "-2.4733",
    "country": "Spain",
    "iso2": "ES",
    "adminName": "Basque Country",
    "capital": "",
    "population": "27769",
    "populationProper": "27769"
  },
  {
    "city": "Morón de la Frontera",
    "lat": "37.1222",
    "lng": "-5.4517",
    "country": "Spain",
    "iso2": "ES",
    "adminName": "Andalusia",
    "capital": "",
    "population": "27633",
    "populationProper": "27633"
  },
  {
    "city": "Calafell",
    "lat": "41.2004",
    "lng": "1.5693",
    "country": "Spain",
    "iso2": "ES",
    "adminName": "Catalonia",
    "capital": "",
    "population": "27601",
    "populationProper": "27601"
  },
  {
    "city": "Lebrija",
    "lat": "36.9194",
    "lng": "-6.0781",
    "country": "Spain",
    "iso2": "ES",
    "adminName": "Andalusia",
    "capital": "",
    "population": "27578",
    "populationProper": "27578"
  },
  {
    "city": "San Andrés de la Barca",
    "lat": "41.4478",
    "lng": "1.9769",
    "country": "Spain",
    "iso2": "ES",
    "adminName": "Catalonia",
    "capital": "",
    "population": "27569",
    "populationProper": "27569"
  },
  {
    "city": "Sueca",
    "lat": "39.2026",
    "lng": "-0.3112",
    "country": "Spain",
    "iso2": "ES",
    "adminName": "Valencia",
    "capital": "",
    "population": "27566",
    "populationProper": "27566"
  },
  {
    "city": "Camas",
    "lat": "37.4020",
    "lng": "-6.0332",
    "country": "Spain",
    "iso2": "ES",
    "adminName": "Andalusia",
    "capital": "",
    "population": "27560",
    "populationProper": "27560"
  },
  {
    "city": "Sestao",
    "lat": "43.3108",
    "lng": "-3.0056",
    "country": "Spain",
    "iso2": "ES",
    "adminName": "Basque Country",
    "capital": "",
    "population": "27452",
    "populationProper": "27452"
  },
  {
    "city": "Algemesí",
    "lat": "39.1897",
    "lng": "-0.4378",
    "country": "Spain",
    "iso2": "ES",
    "adminName": "Valencia",
    "capital": "",
    "population": "27430",
    "populationProper": "27430"
  },
  {
    "city": "Benicarló",
    "lat": "40.4167",
    "lng": "0.4167",
    "country": "Spain",
    "iso2": "ES",
    "adminName": "Valencia",
    "capital": "",
    "population": "27363",
    "populationProper": "27363"
  },
  {
    "city": "La Oliva",
    "lat": "28.6167",
    "lng": "-13.9333",
    "country": "Spain",
    "iso2": "ES",
    "adminName": "Canary Islands",
    "capital": "",
    "population": "27234",
    "populationProper": "27234"
  },
  {
    "city": "Vícar",
    "lat": "36.8317",
    "lng": "-2.6431",
    "country": "Spain",
    "iso2": "ES",
    "adminName": "Andalusia",
    "capital": "",
    "population": "26899",
    "populationProper": "26899"
  },
  {
    "city": "Santa Eugenia",
    "lat": "42.5667",
    "lng": "-8.9833",
    "country": "Spain",
    "iso2": "ES",
    "adminName": "Galicia",
    "capital": "",
    "population": "26848",
    "populationProper": "26848"
  },
  {
    "city": "Almazora",
    "lat": "39.9403",
    "lng": "-0.0625",
    "country": "Spain",
    "iso2": "ES",
    "adminName": "Valencia",
    "capital": "",
    "population": "26742",
    "populationProper": "26742"
  },
  {
    "city": "Cártama",
    "lat": "36.7114",
    "lng": "-4.6306",
    "country": "Spain",
    "iso2": "ES",
    "adminName": "Andalusia",
    "capital": "",
    "population": "26738",
    "populationProper": "26738"
  },
  {
    "city": "Cangas",
    "lat": "42.2642",
    "lng": "-8.7819",
    "country": "Spain",
    "iso2": "ES",
    "adminName": "Galicia",
    "capital": "",
    "population": "26582",
    "populationProper": "26582"
  },
  {
    "city": "Paiporta",
    "lat": "39.4278",
    "lng": "-0.4183",
    "country": "Spain",
    "iso2": "ES",
    "adminName": "Valencia",
    "capital": "",
    "population": "26514",
    "populationProper": "26514"
  },
  {
    "city": "Santa Perpetua de Moguda",
    "lat": "41.5375",
    "lng": "2.1819",
    "country": "Spain",
    "iso2": "ES",
    "adminName": "Catalonia",
    "capital": "",
    "population": "25999",
    "populationProper": "25999"
  },
  {
    "city": "Jumilla",
    "lat": "38.4792",
    "lng": "-1.3250",
    "country": "Spain",
    "iso2": "ES",
    "adminName": "Murcia",
    "capital": "",
    "population": "25994",
    "populationProper": "25994"
  },
  {
    "city": "Molíns de Rey",
    "lat": "41.4139",
    "lng": "2.0158",
    "country": "Spain",
    "iso2": "ES",
    "adminName": "Catalonia",
    "capital": "",
    "population": "25940",
    "populationProper": "25940"
  },
  {
    "city": "San Pedro del Pinatar",
    "lat": "37.8167",
    "lng": "-0.7500",
    "country": "Spain",
    "iso2": "ES",
    "adminName": "Murcia",
    "capital": "",
    "population": "25932",
    "populationProper": "25932"
  },
  {
    "city": "Almuñécar",
    "lat": "36.7339",
    "lng": "-3.6911",
    "country": "Spain",
    "iso2": "ES",
    "adminName": "Andalusia",
    "capital": "",
    "population": "25927",
    "populationProper": "25927"
  },
  {
    "city": "Paracuellos de Jarama",
    "lat": "40.5500",
    "lng": "-3.5167",
    "country": "Spain",
    "iso2": "ES",
    "adminName": "Madrid",
    "capital": "",
    "population": "25917",
    "populationProper": "25917"
  },
  {
    "city": "Villanueva de la Serena",
    "lat": "38.9667",
    "lng": "-5.8000",
    "country": "Spain",
    "iso2": "ES",
    "adminName": "Extremadura",
    "capital": "",
    "population": "25752",
    "populationProper": "25752"
  },
  {
    "city": "Novelda",
    "lat": "38.3850",
    "lng": "-0.7680",
    "country": "Spain",
    "iso2": "ES",
    "adminName": "Valencia",
    "capital": "",
    "population": "25741",
    "populationProper": "25741"
  },
  {
    "city": "Renedo",
    "lat": "43.3578",
    "lng": "-3.9581",
    "country": "Spain",
    "iso2": "ES",
    "adminName": "Cantabria",
    "capital": "",
    "population": "25731",
    "populationProper": "25731"
  },
  {
    "city": "Muchamiel",
    "lat": "38.4136",
    "lng": "-0.4456",
    "country": "Spain",
    "iso2": "ES",
    "adminName": "Valencia",
    "capital": "",
    "population": "25645",
    "populationProper": "25645"
  },
  {
    "city": "Tomares",
    "lat": "37.3764",
    "lng": "-6.0458",
    "country": "Spain",
    "iso2": "ES",
    "adminName": "Andalusia",
    "capital": "",
    "population": "25455",
    "populationProper": "25455"
  },
  {
    "city": "Adra",
    "lat": "36.7478",
    "lng": "-3.0161",
    "country": "Spain",
    "iso2": "ES",
    "adminName": "Andalusia",
    "capital": "",
    "population": "25412",
    "populationProper": "25412"
  },
  {
    "city": "Alhaurín el Grande",
    "lat": "36.6331",
    "lng": "-4.6831",
    "country": "Spain",
    "iso2": "ES",
    "adminName": "Andalusia",
    "capital": "",
    "population": "25358",
    "populationProper": "25358"
  },
  {
    "city": "Oliva",
    "lat": "38.9194",
    "lng": "-0.1211",
    "country": "Spain",
    "iso2": "ES",
    "adminName": "Valencia",
    "capital": "",
    "population": "25224",
    "populationProper": "25224"
  },
  {
    "city": "Villarrobledo",
    "lat": "39.2667",
    "lng": "-2.6000",
    "country": "Spain",
    "iso2": "ES",
    "adminName": "Castille-La Mancha",
    "capital": "",
    "population": "25116",
    "populationProper": "25116"
  },
  {
    "city": "Ciempozuelos",
    "lat": "40.1592",
    "lng": "-3.6183",
    "country": "Spain",
    "iso2": "ES",
    "adminName": "Madrid",
    "capital": "",
    "population": "25104",
    "populationProper": "25104"
  },
  {
    "city": "Cuart de Poblet",
    "lat": "39.4833",
    "lng": "-0.4428",
    "country": "Spain",
    "iso2": "ES",
    "adminName": "Valencia",
    "capital": "",
    "population": "25062",
    "populationProper": "25062"
  },
  {
    "city": "Onda",
    "lat": "39.9625",
    "lng": "-0.2639",
    "country": "Spain",
    "iso2": "ES",
    "adminName": "Valencia",
    "capital": "",
    "population": "24980",
    "populationProper": "24980"
  },
  {
    "city": "Puebla de Vallbona",
    "lat": "39.5917",
    "lng": "-0.5530",
    "country": "Spain",
    "iso2": "ES",
    "adminName": "Valencia",
    "capital": "",
    "population": "24858",
    "populationProper": "24858"
  },
  {
    "city": "Alboraya",
    "lat": "39.5000",
    "lng": "-0.3522",
    "country": "Spain",
    "iso2": "ES",
    "adminName": "Valencia",
    "capital": "",
    "population": "24741",
    "populationProper": "24741"
  },
  {
    "city": "Bétera",
    "lat": "39.5922",
    "lng": "-0.4625",
    "country": "Spain",
    "iso2": "ES",
    "adminName": "Valencia",
    "capital": "",
    "population": "24604",
    "populationProper": "24604"
  },
  {
    "city": "Cambre",
    "lat": "43.2830",
    "lng": "-8.3330",
    "country": "Spain",
    "iso2": "ES",
    "adminName": "Galicia",
    "capital": "",
    "population": "24594",
    "populationProper": "24594"
  },
  {
    "city": "Calahorra",
    "lat": "42.3000",
    "lng": "-1.9667",
    "country": "Spain",
    "iso2": "ES",
    "adminName": "La Rioja",
    "capital": "",
    "population": "24531",
    "populationProper": "24531"
  },
  {
    "city": "Erandio",
    "lat": "43.3047",
    "lng": "-2.9731",
    "country": "Spain",
    "iso2": "ES",
    "adminName": "Basque Country",
    "capital": "",
    "population": "24530",
    "populationProper": "24530"
  },
  {
    "city": "Almansa",
    "lat": "38.8682",
    "lng": "-1.0979",
    "country": "Spain",
    "iso2": "ES",
    "adminName": "Castille-La Mancha",
    "capital": "",
    "population": "24511",
    "populationProper": "24511"
  },
  {
    "city": "Almonte",
    "lat": "37.2667",
    "lng": "-6.5167",
    "country": "Spain",
    "iso2": "ES",
    "adminName": "Andalusia",
    "capital": "",
    "population": "24507",
    "populationProper": "24507"
  },
  {
    "city": "Valls",
    "lat": "41.2883",
    "lng": "1.2508",
    "country": "Spain",
    "iso2": "ES",
    "adminName": "Catalonia",
    "capital": "",
    "population": "24477",
    "populationProper": "24477"
  },
  {
    "city": "San Juan de Alicante",
    "lat": "38.4014",
    "lng": "-0.4367",
    "country": "Spain",
    "iso2": "ES",
    "adminName": "Valencia",
    "capital": "",
    "population": "24367",
    "populationProper": "24367"
  },
  {
    "city": "Armilla",
    "lat": "37.1500",
    "lng": "-3.6167",
    "country": "Spain",
    "iso2": "ES",
    "adminName": "Andalusia",
    "capital": "",
    "population": "24340",
    "populationProper": "24340"
  },
  {
    "city": "Olesa de Montserrat",
    "lat": "41.5450",
    "lng": "1.8944",
    "country": "Spain",
    "iso2": "ES",
    "adminName": "Catalonia",
    "capital": "",
    "population": "24144",
    "populationProper": "24144"
  },
  {
    "city": "Torrelodones",
    "lat": "40.5778",
    "lng": "-3.9278",
    "country": "Spain",
    "iso2": "ES",
    "adminName": "Madrid",
    "capital": "",
    "population": "23902",
    "populationProper": "23902"
  },
  {
    "city": "Masnou",
    "lat": "41.4817",
    "lng": "2.3178",
    "country": "Spain",
    "iso2": "ES",
    "adminName": "Catalonia",
    "capital": "",
    "population": "23831",
    "populationProper": "23831"
  },
  {
    "city": "Los Barrios",
    "lat": "36.1833",
    "lng": "-5.4833",
    "country": "Spain",
    "iso2": "ES",
    "adminName": "Andalusia",
    "capital": "",
    "population": "23777",
    "populationProper": "23777"
  },
  {
    "city": "Mairena del Alcor",
    "lat": "37.3667",
    "lng": "-5.7333",
    "country": "Spain",
    "iso2": "ES",
    "adminName": "Andalusia",
    "capital": "",
    "population": "23698",
    "populationProper": "23698"
  },
  {
    "city": "Ibi",
    "lat": "38.6272",
    "lng": "-0.5753",
    "country": "Spain",
    "iso2": "ES",
    "adminName": "Valencia",
    "capital": "",
    "population": "23564",
    "populationProper": "23564"
  },
  {
    "city": "Liria",
    "lat": "39.6258",
    "lng": "-0.5961",
    "country": "Spain",
    "iso2": "ES",
    "adminName": "Valencia",
    "capital": "",
    "population": "23482",
    "populationProper": "23482"
  },
  {
    "city": "Zarautz",
    "lat": "43.2833",
    "lng": "-2.1667",
    "country": "Spain",
    "iso2": "ES",
    "adminName": "Basque Country",
    "capital": "",
    "population": "23360",
    "populationProper": "23360"
  },
  {
    "city": "Calpe",
    "lat": "38.6450",
    "lng": "0.0442",
    "country": "Spain",
    "iso2": "ES",
    "adminName": "Valencia",
    "capital": "",
    "population": "23326",
    "populationProper": "23326"
  },
  {
    "city": "Icod de los Vinos",
    "lat": "28.3500",
    "lng": "-16.7000",
    "country": "Spain",
    "iso2": "ES",
    "adminName": "Canary Islands",
    "capital": "",
    "population": "23316",
    "populationProper": "23316"
  },
  {
    "city": "Puenteareas",
    "lat": "42.1667",
    "lng": "-8.5000",
    "country": "Spain",
    "iso2": "ES",
    "adminName": "Galicia",
    "capital": "",
    "population": "22940",
    "populationProper": "22940"
  },
  {
    "city": "Conil de la Frontera",
    "lat": "36.2667",
    "lng": "-6.0833",
    "country": "Spain",
    "iso2": "ES",
    "adminName": "Andalusia",
    "capital": "",
    "population": "22775",
    "populationProper": "22775"
  },
  {
    "city": "Laguna de Duero",
    "lat": "41.5833",
    "lng": "-4.7167",
    "country": "Spain",
    "iso2": "ES",
    "adminName": "Castille-Leon",
    "capital": "",
    "population": "22765",
    "populationProper": "22765"
  },
  {
    "city": "Montilla",
    "lat": "37.5833",
    "lng": "-4.6333",
    "country": "Spain",
    "iso2": "ES",
    "adminName": "Andalusia",
    "capital": "",
    "population": "22739",
    "populationProper": "22739"
  },
  {
    "city": "Coín",
    "lat": "36.8167",
    "lng": "-4.7500",
    "country": "Spain",
    "iso2": "ES",
    "adminName": "Andalusia",
    "capital": "",
    "population": "22673",
    "populationProper": "22673"
  },
  {
    "city": "Altea",
    "lat": "38.5986",
    "lng": "-0.0519",
    "country": "Spain",
    "iso2": "ES",
    "adminName": "Valencia",
    "capital": "",
    "population": "22558",
    "populationProper": "22558"
  },
  {
    "city": "Barbate de Franco",
    "lat": "36.1833",
    "lng": "-5.9167",
    "country": "Spain",
    "iso2": "ES",
    "adminName": "Andalusia",
    "capital": "",
    "population": "22556",
    "populationProper": "22556"
  },
  {
    "city": "Vilaseca de Solcina",
    "lat": "41.1110",
    "lng": "1.1450",
    "country": "Spain",
    "iso2": "ES",
    "adminName": "Catalonia",
    "capital": "",
    "population": "22555",
    "populationProper": "22555"
  },
  {
    "city": "Cullera",
    "lat": "39.1639",
    "lng": "-0.2517",
    "country": "Spain",
    "iso2": "ES",
    "adminName": "Andalusia",
    "capital": "",
    "population": "22521",
    "populationProper": "22521"
  },
  {
    "city": "Priego de Córdoba",
    "lat": "37.4333",
    "lng": "-4.1833",
    "country": "Spain",
    "iso2": "ES",
    "adminName": "Andalusia",
    "capital": "",
    "population": "22367",
    "populationProper": "22367"
  },
  {
    "city": "Pilar de la Horadada",
    "lat": "37.8667",
    "lng": "-0.7833",
    "country": "Spain",
    "iso2": "ES",
    "adminName": "Valencia",
    "capital": "",
    "population": "22347",
    "populationProper": "22347"
  },
  {
    "city": "Maracena",
    "lat": "37.2000",
    "lng": "-3.6333",
    "country": "Spain",
    "iso2": "ES",
    "adminName": "Andalusia",
    "capital": "",
    "population": "22306",
    "populationProper": "22306"
  },
  {
    "city": "Esparraguera",
    "lat": "41.5381",
    "lng": "1.8692",
    "country": "Spain",
    "iso2": "ES",
    "adminName": "Catalonia",
    "capital": "",
    "population": "22302",
    "populationProper": "22302"
  },
  {
    "city": "Bormujos",
    "lat": "37.3667",
    "lng": "-6.0667",
    "country": "Spain",
    "iso2": "ES",
    "adminName": "Andalusia",
    "capital": "",
    "population": "22180",
    "populationProper": "22180"
  },
  {
    "city": "Torre del Mar",
    "lat": "36.7500",
    "lng": "-4.1000",
    "country": "Spain",
    "iso2": "ES",
    "adminName": "Andalusia",
    "capital": "",
    "population": "22168",
    "populationProper": "22168"
  },
  {
    "city": "Alhama de Murcia",
    "lat": "37.8514",
    "lng": "-1.4264",
    "country": "Spain",
    "iso2": "ES",
    "adminName": "Murcia",
    "capital": "",
    "population": "22160",
    "populationProper": "22160"
  },
  {
    "city": "San Felíu de Guixols",
    "lat": "41.7806",
    "lng": "3.0306",
    "country": "Spain",
    "iso2": "ES",
    "adminName": "Catalonia",
    "capital": "",
    "population": "22097",
    "populationProper": "22097"
  },
  {
    "city": "Moncada",
    "lat": "39.5333",
    "lng": "-0.3833",
    "country": "Spain",
    "iso2": "ES",
    "adminName": "Valencia",
    "capital": "",
    "population": "22021",
    "populationProper": "22021"
  },
  {
    "city": "Moguer",
    "lat": "37.2747",
    "lng": "-6.8386",
    "country": "Spain",
    "iso2": "ES",
    "adminName": "Andalusia",
    "capital": "",
    "population": "21867",
    "populationProper": "21867"
  },
  {
    "city": "Guía de Isora",
    "lat": "28.2110",
    "lng": "-16.7784",
    "country": "Spain",
    "iso2": "ES",
    "adminName": "Canary Islands",
    "capital": "",
    "population": "21796",
    "populationProper": "21796"
  },
  {
    "city": "San Juan de Aznalfarache",
    "lat": "37.3667",
    "lng": "-6.0167",
    "country": "Spain",
    "iso2": "ES",
    "adminName": "Andalusia",
    "capital": "",
    "population": "21774",
    "populationProper": "21774"
  },
  {
    "city": "Las Torres de Cotillas",
    "lat": "38.0264",
    "lng": "-1.2436",
    "country": "Spain",
    "iso2": "ES",
    "adminName": "Andalusia",
    "capital": "",
    "population": "21753",
    "populationProper": "21753"
  },
  {
    "city": "Alcalá la Real",
    "lat": "37.4500",
    "lng": "-3.9167",
    "country": "Spain",
    "iso2": "ES",
    "adminName": "Andalusia",
    "capital": "",
    "population": "21709",
    "populationProper": "21709"
  },
  {
    "city": "Aljaraque",
    "lat": "37.2667",
    "lng": "-7.0167",
    "country": "Spain",
    "iso2": "ES",
    "adminName": "Andalusia",
    "capital": "",
    "population": "21474",
    "populationProper": "21474"
  },
  {
    "city": "Alfafar",
    "lat": "39.4222",
    "lng": "-0.3906",
    "country": "Spain",
    "iso2": "ES",
    "adminName": "Valencia",
    "capital": "",
    "population": "21395",
    "populationProper": "21395"
  },
  {
    "city": "Isla-Cristina",
    "lat": "37.1992",
    "lng": "-7.3214",
    "country": "Spain",
    "iso2": "ES",
    "adminName": "Andalusia",
    "capital": "",
    "population": "21393",
    "populationProper": "21393"
  },
  {
    "city": "Pájara",
    "lat": "28.3500",
    "lng": "-14.1000",
    "country": "Spain",
    "iso2": "ES",
    "adminName": "Canary Islands",
    "capital": "",
    "population": "21349",
    "populationProper": "21349"
  },
  {
    "city": "Picasent",
    "lat": "39.3611",
    "lng": "-0.4600",
    "country": "Spain",
    "iso2": "ES",
    "adminName": "Valencia",
    "capital": "",
    "population": "21263",
    "populationProper": "21263"
  },
  {
    "city": "Almoradí",
    "lat": "38.1097",
    "lng": "-0.7894",
    "country": "Spain",
    "iso2": "ES",
    "adminName": "Valencia",
    "capital": "",
    "population": "21208",
    "populationProper": "21208"
  },
  {
    "city": "Nerja",
    "lat": "36.7469",
    "lng": "-3.8790",
    "country": "Spain",
    "iso2": "ES",
    "adminName": "Andalusia",
    "capital": "",
    "population": "21144",
    "populationProper": "21144"
  },
  {
    "city": "Ayamonte",
    "lat": "37.2000",
    "lng": "-7.4000",
    "country": "Spain",
    "iso2": "ES",
    "adminName": "Andalusia",
    "capital": "",
    "population": "21104",
    "populationProper": "21104"
  },
  {
    "city": "Palafrugell",
    "lat": "41.9174",
    "lng": "3.1631",
    "country": "Spain",
    "iso2": "ES",
    "adminName": "Catalonia",
    "capital": "",
    "population": "21049",
    "populationProper": "21049"
  },
  {
    "city": "San Juan de Vilasar",
    "lat": "41.5053",
    "lng": "2.3928",
    "country": "Spain",
    "iso2": "ES",
    "adminName": "Catalonia",
    "capital": "",
    "population": "21035",
    "populationProper": "21035"
  },
  {
    "city": "Palma del Río",
    "lat": "37.7000",
    "lng": "-5.2833",
    "country": "Spain",
    "iso2": "ES",
    "adminName": "Andalusia",
    "capital": "",
    "population": "20928",
    "populationProper": "20928"
  },
  {
    "city": "Manlleu",
    "lat": "42.0000",
    "lng": "2.2836",
    "country": "Spain",
    "iso2": "ES",
    "adminName": "Catalonia",
    "capital": "",
    "population": "20912",
    "populationProper": "20912"
  },
  {
    "city": "Alcudia",
    "lat": "39.8525",
    "lng": "3.1192",
    "country": "Spain",
    "iso2": "ES",
    "adminName": "Balearic Islands",
    "capital": "",
    "population": "20819",
    "populationProper": "20819"
  },
  {
    "city": "Aspe",
    "lat": "38.3456",
    "lng": "-0.7689",
    "country": "Spain",
    "iso2": "ES",
    "adminName": "Valencia",
    "capital": "",
    "population": "20804",
    "populationProper": "20804"
  },
  {
    "city": "Los Llanos de Aridane",
    "lat": "28.6500",
    "lng": "-17.9000",
    "country": "Spain",
    "iso2": "ES",
    "adminName": "Canary Islands",
    "capital": "",
    "population": "20760",
    "populationProper": "20760"
  },
  {
    "city": "Güimar",
    "lat": "28.3150",
    "lng": "-16.4100",
    "country": "Spain",
    "iso2": "ES",
    "adminName": "Canary Islands",
    "capital": "",
    "population": "20662",
    "populationProper": "20662"
  },
  {
    "city": "La Unión",
    "lat": "37.6192",
    "lng": "-0.8756",
    "country": "Spain",
    "iso2": "ES",
    "adminName": "Murcia",
    "capital": "",
    "population": "20538",
    "populationProper": "20538"
  },
  {
    "city": "Hernani",
    "lat": "43.2667",
    "lng": "-1.9667",
    "country": "Spain",
    "iso2": "ES",
    "adminName": "Basque Country",
    "capital": "",
    "population": "20438",
    "populationProper": "20438"
  },
  {
    "city": "Carcagente",
    "lat": "39.1222",
    "lng": "-0.4489",
    "country": "Spain",
    "iso2": "ES",
    "adminName": "Valencia",
    "capital": "",
    "population": "20436",
    "populationProper": "20436"
  },
  {
    "city": "Baza",
    "lat": "37.4833",
    "lng": "-2.7667",
    "country": "Spain",
    "iso2": "ES",
    "adminName": "Andalusia",
    "capital": "",
    "population": "20430",
    "populationProper": "20430"
  },
  {
    "city": "Loja",
    "lat": "37.1667",
    "lng": "-4.1500",
    "country": "Spain",
    "iso2": "ES",
    "adminName": "Andalusia",
    "capital": "",
    "population": "20419",
    "populationProper": "20419"
  },
  {
    "city": "Medina del Campo",
    "lat": "41.3000",
    "lng": "-4.9167",
    "country": "Spain",
    "iso2": "ES",
    "adminName": "Castille-Leon",
    "capital": "",
    "population": "20416",
    "populationProper": "20416"
  },
  {
    "city": "Requena",
    "lat": "39.4861",
    "lng": "-1.1017",
    "country": "Spain",
    "iso2": "ES",
    "adminName": "Valencia",
    "capital": "",
    "population": "20405",
    "populationProper": "20405"
  },
  {
    "city": "La Estrada",
    "lat": "42.7000",
    "lng": "-8.4833",
    "country": "Spain",
    "iso2": "ES",
    "adminName": "Galicia",
    "capital": "",
    "population": "20351",
    "populationProper": "20351"
  },
  {
    "city": "Cabra",
    "lat": "37.4667",
    "lng": "-4.4333",
    "country": "Spain",
    "iso2": "ES",
    "adminName": "Andalusia",
    "capital": "",
    "population": "20347",
    "populationProper": "20347"
  },
  {
    "city": "Lalín",
    "lat": "42.6500",
    "lng": "-8.1167",
    "country": "Spain",
    "iso2": "ES",
    "adminName": "Galicia",
    "capital": "",
    "population": "20207",
    "populationProper": "20207"
  },
  {
    "city": "Barañáin",
    "lat": "42.8000",
    "lng": "-1.6667",
    "country": "Spain",
    "iso2": "ES",
    "adminName": "Navarre",
    "capital": "",
    "population": "20167",
    "populationProper": "20167"
  },
  {
    "city": "Porriño",
    "lat": "42.1667",
    "lng": "-8.6167",
    "country": "Spain",
    "iso2": "ES",
    "adminName": "Galicia",
    "capital": "",
    "population": "20100",
    "populationProper": "20100"
  },
  {
    "city": "Calatayud",
    "lat": "41.3500",
    "lng": "-1.6333",
    "country": "Spain",
    "iso2": "ES",
    "adminName": "Aragon",
    "capital": "",
    "population": "20092",
    "populationProper": "20092"
  },
  {
    "city": "Cartaya",
    "lat": "37.2833",
    "lng": "-7.1500",
    "country": "Spain",
    "iso2": "ES",
    "adminName": "Andalusia",
    "capital": "",
    "population": "20083",
    "populationProper": "20083"
  },
  {
    "city": "Bañolas",
    "lat": "42.1194",
    "lng": "2.7664",
    "country": "Spain",
    "iso2": "ES",
    "adminName": "Catalonia",
    "capital": "",
    "population": "20053",
    "populationProper": "20053"
  },
  {
    "city": "Rosas",
    "lat": "42.2633",
    "lng": "3.1750",
    "country": "Spain",
    "iso2": "ES",
    "adminName": "Catalonia",
    "capital": "",
    "population": "19807",
    "populationProper": "19807"
  },
  {
    "city": "Puzol",
    "lat": "39.6167",
    "lng": "-0.3011",
    "country": "Spain",
    "iso2": "ES",
    "adminName": "Valencia",
    "capital": "",
    "population": "19737",
    "populationProper": "19737"
  },
  {
    "city": "El Arahal",
    "lat": "37.2667",
    "lng": "-5.5500",
    "country": "Spain",
    "iso2": "ES",
    "adminName": "Andalusia",
    "capital": "",
    "population": "19533",
    "populationProper": "19533"
  },
  {
    "city": "Amorebieta",
    "lat": "43.2192",
    "lng": "-2.7342",
    "country": "Spain",
    "iso2": "ES",
    "adminName": "Basque Country",
    "capital": "",
    "population": "19529",
    "populationProper": "19529"
  },
  {
    "city": "Moaña",
    "lat": "42.2833",
    "lng": "-8.7500",
    "country": "Spain",
    "iso2": "ES",
    "adminName": "Galicia",
    "capital": "",
    "population": "19452",
    "populationProper": "19452"
  },
  {
    "city": "Huércal-Overa",
    "lat": "37.3833",
    "lng": "-1.9333",
    "country": "Spain",
    "iso2": "ES",
    "adminName": "Andalusia",
    "capital": "",
    "population": "19432",
    "populationProper": "19432"
  },
  {
    "city": "Archena",
    "lat": "38.1150",
    "lng": "-1.2992",
    "country": "Spain",
    "iso2": "ES",
    "adminName": "Murcia",
    "capital": "",
    "population": "19428",
    "populationProper": "19428"
  },
  {
    "city": "Zubia",
    "lat": "37.1206",
    "lng": "-3.5850",
    "country": "Spain",
    "iso2": "ES",
    "adminName": "Andalusia",
    "capital": "",
    "population": "19330",
    "populationProper": "19330"
  },
  {
    "city": "Marchena",
    "lat": "37.3333",
    "lng": "-5.4167",
    "country": "Spain",
    "iso2": "ES",
    "adminName": "Andalusia",
    "capital": "",
    "population": "19329",
    "populationProper": "19329"
  },
  {
    "city": "El Viso del Alcor",
    "lat": "37.3833",
    "lng": "-5.7167",
    "country": "Spain",
    "iso2": "ES",
    "adminName": "Andalusia",
    "capital": "",
    "population": "19324",
    "populationProper": "19324"
  },
  {
    "city": "Calella",
    "lat": "41.6169",
    "lng": "2.6642",
    "country": "Spain",
    "iso2": "ES",
    "adminName": "Catalonia",
    "capital": "",
    "population": "19277",
    "populationProper": "19277"
  },
  {
    "city": "Chipiona",
    "lat": "36.7333",
    "lng": "-6.4333",
    "country": "Spain",
    "iso2": "ES",
    "adminName": "Andalusia",
    "capital": "",
    "population": "19246",
    "populationProper": "19246"
  },
  {
    "city": "Callosa de Segura",
    "lat": "38.1225",
    "lng": "-0.8797",
    "country": "Spain",
    "iso2": "ES",
    "adminName": "Valencia",
    "capital": "",
    "population": "19127",
    "populationProper": "19127"
  },
  {
    "city": "Silla",
    "lat": "39.3618",
    "lng": "-0.4103",
    "country": "Spain",
    "iso2": "ES",
    "adminName": "Valencia",
    "capital": "",
    "population": "19078",
    "populationProper": "19078"
  },
  {
    "city": "Baena",
    "lat": "37.6167",
    "lng": "-4.3167",
    "country": "Spain",
    "iso2": "ES",
    "adminName": "Andalusia",
    "capital": "",
    "population": "19045",
    "populationProper": "19045"
  },
  {
    "city": "Albolote",
    "lat": "37.2306",
    "lng": "-3.6569",
    "country": "Spain",
    "iso2": "ES",
    "adminName": "Andalusia",
    "capital": "",
    "population": "18962",
    "populationProper": "18962"
  },
  {
    "city": "Atarfe",
    "lat": "37.2229",
    "lng": "-3.6899",
    "country": "Spain",
    "iso2": "ES",
    "adminName": "Andalusia",
    "capital": "",
    "population": "18960",
    "populationProper": "18960"
  },
  {
    "city": "Utebo",
    "lat": "41.7141",
    "lng": "-0.9944",
    "country": "Spain",
    "iso2": "ES",
    "adminName": "Aragon",
    "capital": "",
    "population": "18822",
    "populationProper": "18822"
  },
  {
    "city": "Malgrat de Mar",
    "lat": "41.6456",
    "lng": "2.7428",
    "country": "Spain",
    "iso2": "ES",
    "adminName": "Catalonia",
    "capital": "",
    "population": "18772",
    "populationProper": "18772"
  },
  {
    "city": "Villaquilambre",
    "lat": "42.6167",
    "lng": "-5.6000",
    "country": "Spain",
    "iso2": "ES",
    "adminName": "Castille-Leon",
    "capital": "",
    "population": "18684",
    "populationProper": "18684"
  },
  {
    "city": "Sant Just Desvern",
    "lat": "41.3833",
    "lng": "2.0750",
    "country": "Spain",
    "iso2": "ES",
    "adminName": "Catalonia",
    "capital": "",
    "population": "18670",
    "populationProper": "18670"
  },
  {
    "city": "Lora del Río",
    "lat": "37.6500",
    "lng": "-5.5167",
    "country": "Spain",
    "iso2": "ES",
    "adminName": "Andalusia",
    "capital": "",
    "population": "18630",
    "populationProper": "18630"
  },
  {
    "city": "San Lorenzo de El Escorial",
    "lat": "40.5936",
    "lng": "-4.1428",
    "country": "Spain",
    "iso2": "ES",
    "adminName": "Madrid",
    "capital": "",
    "population": "18532",
    "populationProper": "18532"
  },
  {
    "city": "Guadix",
    "lat": "37.3000",
    "lng": "-3.1333",
    "country": "Spain",
    "iso2": "ES",
    "adminName": "Andalusia",
    "capital": "",
    "population": "18436",
    "populationProper": "18436"
  },
  {
    "city": "Cardedeu",
    "lat": "41.6406",
    "lng": "2.3594",
    "country": "Spain",
    "iso2": "ES",
    "adminName": "Catalonia",
    "capital": "",
    "population": "18424",
    "populationProper": "18424"
  },
  {
    "city": "Benicasim",
    "lat": "40.0553",
    "lng": "0.0642",
    "country": "Spain",
    "iso2": "ES",
    "adminName": "Valencia",
    "capital": "",
    "population": "18364",
    "populationProper": "18364"
  },
  {
    "city": "La Eliana",
    "lat": "39.5661",
    "lng": "-0.5281",
    "country": "Spain",
    "iso2": "ES",
    "adminName": "Valencia",
    "capital": "",
    "population": "18362",
    "populationProper": "18362"
  },
  {
    "city": "Felanitx",
    "lat": "39.4692",
    "lng": "3.1481",
    "country": "Spain",
    "iso2": "ES",
    "adminName": "Balearic Islands",
    "capital": "",
    "population": "18202",
    "populationProper": "18202"
  },
  {
    "city": "Tarifa",
    "lat": "36.0140",
    "lng": "-5.6060",
    "country": "Spain",
    "iso2": "ES",
    "adminName": "Andalusia",
    "capital": "",
    "population": "18183",
    "populationProper": "18183"
  },
  {
    "city": "La Nucía",
    "lat": "38.6172",
    "lng": "-0.1231",
    "country": "Spain",
    "iso2": "ES",
    "adminName": "Valencia",
    "capital": "",
    "population": "18163",
    "populationProper": "18163"
  },
  {
    "city": "San Celoni",
    "lat": "41.6895",
    "lng": "2.4897",
    "country": "Spain",
    "iso2": "ES",
    "adminName": "Catalonia",
    "capital": "",
    "population": "18136",
    "populationProper": "18136"
  },
  {
    "city": "El Astillero",
    "lat": "43.4017",
    "lng": "-3.8194",
    "country": "Spain",
    "iso2": "ES",
    "adminName": "Cantabria",
    "capital": "",
    "population": "18134",
    "populationProper": "18134"
  },
  {
    "city": "Manzanares",
    "lat": "38.9964",
    "lng": "-3.3731",
    "country": "Spain",
    "iso2": "ES",
    "adminName": "Castille-La Mancha",
    "capital": "",
    "population": "17962",
    "populationProper": "17962"
  },
  {
    "city": "Torrox",
    "lat": "36.7500",
    "lng": "-3.9500",
    "country": "Spain",
    "iso2": "ES",
    "adminName": "Andalusia",
    "capital": "",
    "population": "17943",
    "populationProper": "17943"
  },
  {
    "city": "Huércal de Almería",
    "lat": "36.8833",
    "lng": "-2.4333",
    "country": "Spain",
    "iso2": "ES",
    "adminName": "Andalusia",
    "capital": "",
    "population": "17917",
    "populationProper": "17917"
  },
  {
    "city": "Daimiel",
    "lat": "39.0833",
    "lng": "-3.6167",
    "country": "Spain",
    "iso2": "ES",
    "adminName": "Castille-La Mancha",
    "capital": "",
    "population": "17916",
    "populationProper": "17916"
  },
  {
    "city": "Caldas de Montbuy",
    "lat": "41.6328",
    "lng": "2.1675",
    "country": "Spain",
    "iso2": "ES",
    "adminName": "Catalonia",
    "capital": "",
    "population": "17812",
    "populationProper": "17812"
  },
  {
    "city": "Benavente",
    "lat": "42.0031",
    "lng": "-5.6742",
    "country": "Spain",
    "iso2": "ES",
    "adminName": "Castille-Leon",
    "capital": "",
    "population": "17787",
    "populationProper": "17787"
  },
  {
    "city": "Nigrán",
    "lat": "42.1419",
    "lng": "-8.8056",
    "country": "Spain",
    "iso2": "ES",
    "adminName": "Galicia",
    "capital": "",
    "population": "17745",
    "populationProper": "17745"
  },
  {
    "city": "Munguía",
    "lat": "43.3547",
    "lng": "-2.8472",
    "country": "Spain",
    "iso2": "ES",
    "adminName": "Basque Country",
    "capital": "",
    "population": "17665",
    "populationProper": "17665"
  },
  {
    "city": "Osuna",
    "lat": "37.2333",
    "lng": "-5.1000",
    "country": "Spain",
    "iso2": "ES",
    "adminName": "Andalusia",
    "capital": "",
    "population": "17621",
    "populationProper": "17621"
  },
  {
    "city": "Bailén",
    "lat": "38.0833",
    "lng": "-3.7667",
    "country": "Spain",
    "iso2": "ES",
    "adminName": "Andalusia",
    "capital": "",
    "population": "17548",
    "populationProper": "17548"
  },
  {
    "city": "Castilleja de la Cuesta",
    "lat": "37.3833",
    "lng": "-6.0500",
    "country": "Spain",
    "iso2": "ES",
    "adminName": "Andalusia",
    "capital": "",
    "population": "17516",
    "populationProper": "17516"
  },
  {
    "city": "Balaguer",
    "lat": "41.7904",
    "lng": "0.8056",
    "country": "Spain",
    "iso2": "ES",
    "adminName": "Catalonia",
    "capital": "",
    "population": "17472",
    "populationProper": "17472"
  },
  {
    "city": "Tárrega",
    "lat": "41.6464",
    "lng": "1.1394",
    "country": "Spain",
    "iso2": "ES",
    "adminName": "Catalonia",
    "capital": "",
    "population": "17445",
    "populationProper": "17445"
  },
  {
    "city": "Sangenjo",
    "lat": "42.4017",
    "lng": "-8.8067",
    "country": "Spain",
    "iso2": "ES",
    "adminName": "Galicia",
    "capital": "",
    "population": "17414",
    "populationProper": "17414"
  },
  {
    "city": "Tabernes de Valldigna",
    "lat": "39.0722",
    "lng": "-0.2658",
    "country": "Spain",
    "iso2": "ES",
    "adminName": "Valencia",
    "capital": "",
    "population": "17254",
    "populationProper": "17254"
  },
  {
    "city": "Pozoblanco",
    "lat": "38.3833",
    "lng": "-4.8500",
    "country": "Spain",
    "iso2": "ES",
    "adminName": "Andalusia",
    "capital": "",
    "population": "17204",
    "populationProper": "17204"
  },
  {
    "city": "Barbastro",
    "lat": "42.0361",
    "lng": "0.1264",
    "country": "Spain",
    "iso2": "ES",
    "adminName": "Aragon",
    "capital": "",
    "population": "17174",
    "populationProper": "17174"
  },
  {
    "city": "Navalmoral de la Mata",
    "lat": "39.8983",
    "lng": "-5.5403",
    "country": "Spain",
    "iso2": "ES",
    "adminName": "Extremadura",
    "capital": "",
    "population": "17163",
    "populationProper": "17163"
  },
  {
    "city": "Guernica y Luno",
    "lat": "43.3167",
    "lng": "-2.6667",
    "country": "Spain",
    "iso2": "ES",
    "adminName": "Basque Country",
    "capital": "",
    "population": "17105",
    "populationProper": "17105"
  },
  {
    "city": "Poyo",
    "lat": "42.4333",
    "lng": "-8.6667",
    "country": "Spain",
    "iso2": "ES",
    "adminName": "Galicia",
    "capital": "",
    "population": "17073",
    "populationProper": "17073"
  },
  {
    "city": "Mula",
    "lat": "38.0419",
    "lng": "-1.4906",
    "country": "Spain",
    "iso2": "ES",
    "adminName": "Murcia",
    "capital": "",
    "population": "17021",
    "populationProper": "17021"
  },
  {
    "city": "Vera",
    "lat": "37.2500",
    "lng": "-1.8667",
    "country": "Spain",
    "iso2": "ES",
    "adminName": "Andalusia",
    "capital": "",
    "population": "16996",
    "populationProper": "16996"
  },
  {
    "city": "Bermeo",
    "lat": "43.4200",
    "lng": "-2.7264",
    "country": "Spain",
    "iso2": "ES",
    "adminName": "Basque Country",
    "capital": "",
    "population": "16864",
    "populationProper": "16864"
  },
  {
    "city": "Canovellas",
    "lat": "41.6176",
    "lng": "2.2814",
    "country": "Spain",
    "iso2": "ES",
    "adminName": "Catalonia",
    "capital": "",
    "population": "16829",
    "populationProper": "16829"
  },
  {
    "city": "Zafra",
    "lat": "38.4167",
    "lng": "-6.4167",
    "country": "Spain",
    "iso2": "ES",
    "adminName": "Extremadura",
    "capital": "",
    "population": "16810",
    "populationProper": "16810"
  },
  {
    "city": "Fuente-Álamo de Murcia",
    "lat": "37.7394",
    "lng": "-1.1881",
    "country": "Spain",
    "iso2": "ES",
    "adminName": "Murcia",
    "capital": "",
    "population": "16787",
    "populationProper": "16787"
  },
  {
    "city": "Berga",
    "lat": "42.1000",
    "lng": "1.8456",
    "country": "Spain",
    "iso2": "ES",
    "adminName": "Catalonia",
    "capital": "",
    "population": "16760",
    "populationProper": "16760"
  },
  {
    "city": "Rojales",
    "lat": "38.0886",
    "lng": "-0.7236",
    "country": "Spain",
    "iso2": "ES",
    "adminName": "Valencia",
    "capital": "",
    "population": "16671",
    "populationProper": "16671"
  },
  {
    "city": "La Garriga",
    "lat": "41.6804",
    "lng": "2.2833",
    "country": "Spain",
    "iso2": "ES",
    "adminName": "Catalonia",
    "capital": "",
    "population": "16668",
    "populationProper": "16668"
  },
  {
    "city": "Pollensa",
    "lat": "39.8772",
    "lng": "3.0164",
    "country": "Spain",
    "iso2": "ES",
    "adminName": "Balearic Islands",
    "capital": "",
    "population": "16658",
    "populationProper": "16658"
  },
  {
    "city": "Montornés del Vallés",
    "lat": "41.5444",
    "lng": "2.2670",
    "country": "Spain",
    "iso2": "ES",
    "adminName": "Catalonia",
    "capital": "",
    "population": "16644",
    "populationProper": "16644"
  },
  {
    "city": "Ubrique",
    "lat": "36.6833",
    "lng": "-5.4500",
    "country": "Spain",
    "iso2": "ES",
    "adminName": "Andalusia",
    "capital": "",
    "population": "16605",
    "populationProper": "16605"
  },
  {
    "city": "Los Alcázares",
    "lat": "37.7436",
    "lng": "-0.8497",
    "country": "Spain",
    "iso2": "ES",
    "adminName": "Murcia",
    "capital": "",
    "population": "16590",
    "populationProper": "16590"
  },
  {
    "city": "Albal",
    "lat": "39.3972",
    "lng": "-0.4156",
    "country": "Spain",
    "iso2": "ES",
    "adminName": "Valencia",
    "capital": "",
    "population": "16577",
    "populationProper": "16577"
  },
  {
    "city": "Torredembarra",
    "lat": "41.1457",
    "lng": "1.3957",
    "country": "Spain",
    "iso2": "ES",
    "adminName": "Catalonia",
    "capital": "",
    "population": "16567",
    "populationProper": "16567"
  },
  {
    "city": "Guadarrama",
    "lat": "40.6728",
    "lng": "-4.0889",
    "country": "Spain",
    "iso2": "ES",
    "adminName": "Madrid",
    "capital": "",
    "population": "16560",
    "populationProper": "16560"
  },
  {
    "city": "La Algaba",
    "lat": "37.4500",
    "lng": "-6.0000",
    "country": "Spain",
    "iso2": "ES",
    "adminName": "Andalusia",
    "capital": "",
    "population": "16503",
    "populationProper": "16503"
  },
  {
    "city": "Manilva",
    "lat": "36.3833",
    "lng": "-5.2500",
    "country": "Spain",
    "iso2": "ES",
    "adminName": "Andalusia",
    "capital": "",
    "population": "16439",
    "populationProper": "16439"
  },
  {
    "city": "Las Cabezas de San Juan",
    "lat": "36.9817",
    "lng": "-5.9406",
    "country": "Spain",
    "iso2": "ES",
    "adminName": "Andalusia",
    "capital": "",
    "population": "16358",
    "populationProper": "16358"
  },
  {
    "city": "Santomera",
    "lat": "38.0617",
    "lng": "-1.0492",
    "country": "Spain",
    "iso2": "ES",
    "adminName": "Murcia",
    "capital": "",
    "population": "16270",
    "populationProper": "16270"
  },
  {
    "city": "Arzúa",
    "lat": "42.9167",
    "lng": "-8.2167",
    "country": "Spain",
    "iso2": "ES",
    "adminName": "Galicia",
    "capital": "",
    "population": "16241",
    "populationProper": "6011"
  },
  {
    "city": "Sada",
    "lat": "43.3500",
    "lng": "-8.2500",
    "country": "Spain",
    "iso2": "ES",
    "adminName": "Galicia",
    "capital": "",
    "population": "16186",
    "populationProper": "16186"
  },
  {
    "city": "Masamagrell",
    "lat": "39.5703",
    "lng": "-0.3300",
    "country": "Spain",
    "iso2": "ES",
    "adminName": "Valencia",
    "capital": "",
    "population": "16163",
    "populationProper": "16163"
  },
  {
    "city": "Piera",
    "lat": "41.5222",
    "lng": "1.7494",
    "country": "Spain",
    "iso2": "ES",
    "adminName": "Catalonia",
    "capital": "",
    "population": "16134",
    "populationProper": "16134"
  },
  {
    "city": "Alcañiz",
    "lat": "41.0511",
    "lng": "-0.1336",
    "country": "Spain",
    "iso2": "ES",
    "adminName": "Aragon",
    "capital": "",
    "population": "15947",
    "populationProper": "15947"
  },
  {
    "city": "Arenys de Mar",
    "lat": "41.5819",
    "lng": "2.5503",
    "country": "Spain",
    "iso2": "ES",
    "adminName": "Catalonia",
    "capital": "",
    "population": "15941",
    "populationProper": "15941"
  },
  {
    "city": "Guardamar del Segura",
    "lat": "38.0897",
    "lng": "-0.6550",
    "country": "Spain",
    "iso2": "ES",
    "adminName": "Valencia",
    "capital": "",
    "population": "15849",
    "populationProper": "15849"
  },
  {
    "city": "Ermúa",
    "lat": "43.1875",
    "lng": "-2.5008",
    "country": "Spain",
    "iso2": "ES",
    "adminName": "Basque Country",
    "capital": "",
    "population": "15847",
    "populationProper": "15847"
  },
  {
    "city": "Espartinas",
    "lat": "37.3833",
    "lng": "-6.1167",
    "country": "Spain",
    "iso2": "ES",
    "adminName": "Andalusia",
    "capital": "",
    "population": "15824",
    "populationProper": "15824"
  },
  {
    "city": "Baeza",
    "lat": "37.9833",
    "lng": "-3.4667",
    "country": "Spain",
    "iso2": "ES",
    "adminName": "Andalusia",
    "capital": "",
    "population": "15791",
    "populationProper": "15791"
  },
  {
    "city": "Lumbreras",
    "lat": "37.5633",
    "lng": "-1.8072",
    "country": "Spain",
    "iso2": "ES",
    "adminName": "Murcia",
    "capital": "",
    "population": "15780",
    "populationProper": "15780"
  },
  {
    "city": "Cubellas",
    "lat": "41.2100",
    "lng": "1.6736",
    "country": "Spain",
    "iso2": "ES",
    "adminName": "Catalonia",
    "capital": "",
    "population": "15770",
    "populationProper": "15770"
  },
  {
    "city": "Santa Cruz de la Palma",
    "lat": "28.6825",
    "lng": "-17.7650",
    "country": "Spain",
    "iso2": "ES",
    "adminName": "Canary Islands",
    "capital": "",
    "population": "15695",
    "populationProper": "15695"
  },
  {
    "city": "Churriana de la Vega",
    "lat": "37.1500",
    "lng": "-3.6500",
    "country": "Spain",
    "iso2": "ES",
    "adminName": "Andalusia",
    "capital": "",
    "population": "15689",
    "populationProper": "15689"
  },
  {
    "city": "La Roda",
    "lat": "39.2070",
    "lng": "-2.1604",
    "country": "Spain",
    "iso2": "ES",
    "adminName": "Castille-La Mancha",
    "capital": "",
    "population": "15527",
    "populationProper": "15527"
  },
  {
    "city": "Miguelturra",
    "lat": "38.9647",
    "lng": "-3.8911",
    "country": "Spain",
    "iso2": "ES",
    "adminName": "Castille-La Mancha",
    "capital": "",
    "population": "15498",
    "populationProper": "15498"
  },
  {
    "city": "La Solana",
    "lat": "38.9414",
    "lng": "-3.2394",
    "country": "Spain",
    "iso2": "ES",
    "adminName": "Castille-La Mancha",
    "capital": "",
    "population": "15419",
    "populationProper": "15419"
  },
  {
    "city": "Chiva",
    "lat": "39.4714",
    "lng": "-0.7197",
    "country": "Spain",
    "iso2": "ES",
    "adminName": "Valencia",
    "capital": "",
    "population": "15414",
    "populationProper": "15414"
  },
  {
    "city": "Vieiro",
    "lat": "43.6481",
    "lng": "-7.5900",
    "country": "Spain",
    "iso2": "ES",
    "adminName": "Galicia",
    "capital": "",
    "population": "15391",
    "populationProper": "15391"
  },
  {
    "city": "Punta Umbría",
    "lat": "37.1667",
    "lng": "-6.9500",
    "country": "Spain",
    "iso2": "ES",
    "adminName": "Andalusia",
    "capital": "",
    "population": "15355",
    "populationProper": "15355"
  },
  {
    "city": "Fraga",
    "lat": "41.5200",
    "lng": "0.3500",
    "country": "Spain",
    "iso2": "ES",
    "adminName": "Aragon",
    "capital": "",
    "population": "15353",
    "populationProper": "15353"
  },
  {
    "city": "La Carolina",
    "lat": "38.2667",
    "lng": "-3.6167",
    "country": "Spain",
    "iso2": "ES",
    "adminName": "Andalusia",
    "capital": "",
    "population": "15160",
    "populationProper": "15160"
  },
  {
    "city": "Azpeitia",
    "lat": "43.1819",
    "lng": "-2.2653",
    "country": "Spain",
    "iso2": "ES",
    "adminName": "Basque Country",
    "capital": "",
    "population": "15106",
    "populationProper": "15106"
  },
  {
    "city": "Cizur Mayor",
    "lat": "42.7867",
    "lng": "-1.6908",
    "country": "Spain",
    "iso2": "ES",
    "adminName": "Navarre",
    "capital": "",
    "population": "15088",
    "populationProper": "15088"
  },